Latitude,Longitude,Time,Date,Number of Sats,GPS Speed (Kn),GPS True Heading,GPS Magnetic Variation,HDOP,C Magnetic Heading,C True Heading,Pitch Angle,Roll Angle,C Inside Temp (c),DFS Depth (m),DTB Height (m),Total Water Column (m),Batt Percent,Power Watts,Watt-Hours,Batt Volts,Batt Ampers,Batt State,Time to Empty,Current Step,Dist To Next (m),Next Speed (kn),Vehicle Speed (kn),Motor Speed CMD,Next Heading,Next Long,Next Lat,Next Depth (m),Depth Goal (m),Vehicle State,Error State,Distance to Track (m),Fin Pitch R,Fin Pitch L,Pitch Goal,Fin Yaw T,Fin Yaw B,Yaw Goal,Fin Roll,DVL-Depth (m),DVL -Altitude (m),DVL -Water Column (m),DVL-FixType,DVL-FixQuality,DVL-Temperature,Conductivity (mmhos/cm),Temperature (c),Salinity (ppt),Sound Speed (m/s),Date m/d/y   ,Time hh:mm:ss,Temp C,SpCond mS/cm,Sal ppt,Depth feet,pH,pH mV,Turbid+ NTU,Chl ug/L,BGA-PC cells/mL,ODOsat %,ODO mg/L,Battery volts,ROSEM Command Type
25.91276817,-80.13791017,42:46.6,12/16/21,4,0.394,294.35,-7.142358562,2.12,66,61.5,1.33,-5.11,30.5,0,1.8,1.8,45,22,249.5,14.6,-1.5,D,683.5,0,7.57,2,0,128,111.41,-80.1378397,25.91274332,0,0,1,N,0.6391832,65,65,11,5,5,279.9857,0,9999.99,1.81,1.937,2,9,26.9,0,26.89999962,49.56,1554.31045,12/16/21,14:18:24,25.95,72.11,49.56,1.183,7.99,-58.7,-2.2,-0.2,-2629,88.6,5.44,12.7,
25.91276933,-80.137909,42:47.6,12/16/21,4,0.879,294.35,-7.142358562,2.12,65.1,60.62,0.88,-5.87,30.4,0,1.79,1.79,45,22,249.5,14.6,-1.5,D,683.5,0,7.57,2,0,128,111.41,-80.1378397,25.91274332,0,0,1,N,0.6391832,64,64,11,5,5,279.9857,0,9999.99,1.8,1.927,2,9,26.9,0,26.89999962,49.58,1554.33186,12/16/21,14:18:25,25.96,72.13,49.58,1.187,7.99,-58.4,-2.7,-0.9,-2198,87.5,5.37,12.8,
25.91277017,-80.1379097,42:48.6,12/16/21,4,0.964,294.35,-7.142358562,2.12,60.6,56.21,2.12,-1.12,30.5,0.01,1.8,1.81,45,22,249.5,14.6,-1.5,D,683.5,1,20.146,2,0.03,174,110.75,-80.13772134,25.91270598,0,0,1,N,0.500329,70,70,11,250,250,111.2843,0,9999.99,1.81,1.937,2,9,26.9,0,26.89999962,49.56,1554.31066,12/16/21,14:18:26,25.96,72.1,49.56,1.201,7.99,-58.8,-3.2,0.5,-3149,86.4,5.3,12.7,
25.91277101,-80.13790648,42:49.7,12/16/21,4,0.522,294.35,-7.142358562,2.12,63.4,58.96,1.23,0.2,30.5,0.01,1.67,1.68,45,25,249.5,14.6,-1.7,D,592.5,1,19.879,2,0.03,174,111.33,-80.13772134,25.91270598,0,0,1,N,0.5113472,66,66,11,250,250,112.0848,0,9999.99,1.68,1.807,2,9,26.9,0,26.89999962,49.52,1554.26845,12/16/21,14:18:28,25.96,72.06,49.52,1.2,8.03,-61.1,-3.7,-3.1,-2912,84.2,5.17,12.6,
25.91277491,-80.13790336,42:50.7,12/16/21,4,0.742,294.35,-7.142358562,2.12,67.8,63.26,0.87,1.19,30.5,0.01,1.85,1.86,45,25,249.5,14.6,-1.7,D,592.5,1,19.753,2,0.24,174,112.83,-80.13772134,25.91270598,0,0,1,N,0.78355,62,62,11,250,250,114.1152,0,9999.99,1.86,1.987,2,9,26.9,0,26.89999962,49.52,1554.26845,12/16/21,14:18:28,25.96,72.06,49.52,1.2,8.03,-61.1,-3.7,-3.1,-2912,84.2,5.17,12.6,
25.91277757,-80.13790009,42:51.7,12/16/21,4,1.192,294.35,-7.142358562,2.12,75.5,70.71,0.92,3.55,30.5,0,1.94,1.95,45,25,249.5,14.6,-1.7,D,592.5,1,19.57,2,0.73,174,114,-80.13772134,25.91270598,0,0,1,N,1.570939,63,63,11,250,250,115.6928,0,9999.99,1.95,2.077,2,9,26.9,0,26.89999962,49.52,1554.26781,12/16/21,14:18:29,25.96,72.06,49.52,1.163,7.99,-58.7,-4.8,-3.5,-3047,83.1,5.1,12.7,
25.91277783,-80.13789637,42:52.7,12/16/21,4,1.752,294.35,-7.142358562,2.12,106,99.47,-18.8,6.09,30.4,0,2.09,2.1,45,39,249.5,14.6,-2.6,D,387,1,19.242,2,0.73,174,114.53,-80.13772134,25.91270598,0,0,1,N,1.741004,43,43,11,195,195,116.5341,0,9999.99,1.93,2.056679,2,9,26.9,0,26.89999962,49.35,1554.08581,12/16/21,14:18:31,25.95,71.83,49.35,1.198,7.99,-58.5,-4,-4.1,-1213,81.1,4.99,12.7,
25.91277826,-80.13789564,42:53.7,12/16/21,4,0.788,294.35,-7.142358562,2.12,77.6,72.72,1.92,6.8,30.4,0.01,2.15,2.17,45,39,249.5,14.6,-2.6,D,387,1,19.196,2,0.95,174,114.75,-80.13772134,25.91270598,0,0,1,N,1.781163,75,75,11,250,250,116.7193,0,9999.99,2.17,2.297,2,9,26.9,0,26.89999962,49.35,1554.08581,12/16/21,14:18:31,25.95,71.83,49.35,1.198,7.99,-58.5,-4,-4.1,-1213,81.1,4.99,12.7,
25.91277526,-80.13788935,42:54.7,12/16/21,4,0.907,294.35,-7.142358562,2.12,82.3,77.22,-0.2,2.55,30.4,0.01,2.15,2.17,45,39,249.5,14.6,-2.6,D,387,1,18.486,2,0.77,174,114.63,-80.13772134,25.91270598,0,0,1,N,1.687336,56,56,11,250,250,116.6849,0,9999.99,2.17,2.297,2,9,26.9,0,26.89999962,49.47,1554.21555,12/16/21,14:18:32,25.94,71.99,49.47,1.206,7.98,-58.2,-3.3,-2.3,-2676,80.2,4.92,12.6,
25.91277892,-80.1378879,42:55.7,12/16/21,4,1.235,294.35,-7.142358562,2.12,82.2,77.12,0.21,2.18,30.4,0,2.24,2.24,45,39,249.5,14.6,-2.6,D,387,1,18.529,2,0.83,174,115.96,-80.13772134,25.91270598,0,0,1,N,2.12024,58,58,11,250,250,118.5463,0,9999.99,2.24,2.367,2,9,26.9,0,26.89999962,49.51,1554.25702,12/16/21,14:18:34,25.95,72.04,49.51,1.291,7.98,-58.1,-4.3,-3.8,-2651,78.3,4.81,12.8,
25.91278007,-80.13788496,42:56.7,12/16/21,4,1.166,294.35,-7.142358562,2.12,78.5,73.59,2.13,-4.12,30.4,0.01,2.3,2.31,45,38,249.5,14.6,-2.6,D,391.2,1,18.322,2,0.84,174,116.72,-80.13772134,25.91270598,0,0,1,N,2.328514,71,71,11,250,250,119.5998,0,9999.99,2.3,2.427,2,9,26.9,0,26.89999962,49.51,1554.25702,12/16/21,14:18:34,25.95,72.04,49.51,1.291,7.98,-58.1,-4.3,-3.8,-2651,78.3,4.81,12.8,
25.9127785,-80.13787856,42:57.7,12/16/21,4,1.751,294.35,-7.142358562,2.12,84,78.83,-2,6.47,30.4,0.01,2.36,2.37,45,38,249.5,14.6,-2.6,D,391.2,1,17.672,2,0.74,174,117.15,-80.13772134,25.91270598,0,0,1,N,2.380321,45,45,11,250,250,120.3355,0,9999.99,2.38,2.507,2,9,26.9,0,26.89999962,49.51,1554.25782,12/16/21,14:18:35,25.96,72.03,49.51,1.159,7.98,-58.1,-3,-6.7,-2217,77.5,4.76,12.6,
25.91277835,-80.13787121,42:58.7,12/16/21,4,0.768,294.35,-7.142358562,2.12,81.8,76.74,2.14,-0.9,30.4,0,2.55,2.55,45,38,249.5,14.6,-2.6,D,391.2,1,17.012,2,0.88,174,118.23,-80.13772134,25.91270598,0,0,1,N,2.607641,70,70,11,250,250,121.9951,0,9999.99,2.57,2.697,2,9,26.9,0,26.89999962,49.52,1554.26772,12/16/21,14:18:36,25.97,72.05,49.52,1.21,7.98,-58.1,-4,-1.8,-1782,76.5,4.69,12.6,
25.91278499,-80.13786863,42:59.7,12/16/21,4,1.425,294.35,-7.142358562,2.12,86.7,81.4,1.51,4.34,30.4,0.01,2.69,2.69,45,40,249.4,14.6,-2.7,D,377.8,1,17.152,2,1,179,120.81,-80.13772134,25.91270598,0,0,1,N,3.391308,66,66,11,250,250,125.6098,0,9999.99,2.7,2.827,2,9,26.9,0,26.89999962,49.67,1554.42858,12/16/21,14:18:38,25.95,72.24,49.67,1.2,7.98,-58.2,-2.5,-0.5,-694,74.8,4.59,12.7,
25.91277371,-80.13785999,43:00.7,12/16/21,4,1.332,294.35,-7.142358562,2.12,81.2,76.17,2.16,3.6,30.4,0.01,2.72,2.73,45,40,249.4,14.6,-2.7,D,377.8,1,15.781,2,1,184,118.51,-80.13772134,25.91270598,0,0,1,N,2.48582,70,70,11,250,250,122.6239,0,9999.99,2.74,2.867,2,9,26.9,0,26.89999962,49.67,1554.42858,12/16/21,14:18:38,25.95,72.24,49.67,1.2,7.98,-58.2,-2.5,-0.5,-694,74.8,4.59,12.7,
25.9127742,-80.1378542,43:01.7,12/16/21,4,1.735,294.35,-7.142358562,2.12,82.8,77.69,1.03,1.15,30.5,0.01,2.79,2.8,45,40,249.4,14.6,-2.7,D,377.8,1,15.301,2,0.77,188,119.72,-80.13772134,25.91270598,0,0,1,N,2.733424,66,66,11,250,250,124.5466,0,9999.99,2.8,2.927,2,9,26.9,0,26.89999962,49.69,1554.45014,12/16/21,14:18:39,26,72.27,49.69,1.19,7.99,-58.6,-3.2,-4.8,245,74,4.53,12.7,
25.91277019,-80.13783959,43:02.7,12/16/21,4,1.553,294.35,-7.142358562,2.12,87,81.68,2.61,3.15,30.4,0,2.9,2.9,45,40,249.4,14.6,-2.7,D,377.8,1,13.815,2,1.09,193,121.12,-80.13772134,25.91270598,0,0,1,N,2.793946,73,73,11,250,250,126.965,0,9999.99,2.92,3.047,2,9,26.8,0,26.89999962,49.21,1553.93629,12/16/21,14:18:41,26.05,71.66,49.21,1.191,7.99,-58.8,-2.6,-5.7,-2623,72.4,4.45,12.8,
25.91277073,-80.13783208,43:03.7,12/16/21,4,1.8,294.35,-7.142358562,2.12,100.3,94.17,1.66,1.03,30.4,0,3.09,3.09,45,62,249.5,14.5,-4.2,D,242.2,1,13.211,2,1.36,197,123.03,-80.13772134,25.91270598,0,0,1,N,3.10738,64,64,11,250,250,129.904,0,9999.99,3.1,3.227,2,9,26.8,0,26.89999962,49.21,1553.93629,12/16/21,14:18:41,26.05,71.66,49.21,1.191,7.99,-58.8,-2.6,-5.7,-2623,72.4,4.45,12.8,
25.91277166,-80.13782583,43:04.7,12/16/21,4,2,294.35,-7.142358562,2.12,112.1,105.12,2.69,8.7,30.4,0,3.14,3.14,45,62,249.5,14.5,-4.2,D,242.2,1,12.75,2,1.64,199,124.95,-80.13772134,25.91270598,0,0,1,N,3.430573,73,73,11,237,237,132.5243,0,9999.99,3.16,3.287,2,9,26.8,0,26.79999924,49.26,1553.7737,12/16/21,14:18:42,26,71.72,49.26,1.222,7.99,-58.8,-3.7,-2.5,-2226,71.8,4.41,12.8,
25.9127664,-80.13781202,43:05.8,12/16/21,4,2.767,127.53,-7.142358562,2.12,123.9,116.03,3.63,11,30.4,0.01,3.2,3.21,45,62,249.5,14.5,-4.2,D,242.2,1,11.287,2,1.88,199,126.53,-80.13772134,25.91270598,0,0,1,N,3.354443,79,79,11,191,191,132.0765,0,9999.99,3.23,3.359871,2,9,26.8,0,26.79999924,49.83,1554.38432,12/16/21,14:18:44,26.09,72.45,49.83,1.198,7.99,-58.8,-2.3,-4.5,-1836,70.5,4.31,12.6,
25.91275768,-80.13779526,43:06.8,12/16/21,4,3.212,124.43,-7.142358562,2.12,133.1,124.57,3.46,6.24,30.4,0.01,3.25,3.26,45,86,249.5,14.5,-5.9,D,174.6,1,9.364,2,1.88,199,127.87,-80.13772134,25.91270598,0,0,1,N,3.008062,79,79,11,151,151,129.9354,0,9999.99,3.28,3.407,2,9,26.8,0,26.79999924,49.83,1554.38432,12/16/21,14:18:44,26.09,72.45,49.83,1.198,7.99,-58.8,-2.3,-4.5,-1836,70.5,4.31,12.6,
25.91274752,-80.13778099,43:07.7,12/16/21,4,2.804,126.31,-7.142358562,2.12,136.2,127.46,1.99,7.22,30.4,0.01,3.22,3.23,45,86,249.5,14.5,-5.9,D,174.6,1,7.545,2,2.34,199,127.75,-80.13772134,25.91270598,0,0,1,N,2.430108,69,69,11,122,122,126.2248,0,9999.99,3.24,3.367,2,9,26.8,0,26.79999924,49.65,1554.19161,12/16/21,14:18:45,26.15,72.22,49.65,1.208,8,-59.2,-2.4,-5.9,-789,70,4.28,12.8,
25.91273592,-80.13776805,43:08.8,12/16/21,4,2.86,129.07,-7.142358562,2.12,137.6,128.76,2.7,7.85,30.4,0,3.17,3.17,45,86,249.5,14.5,-5.9,D,174.6,1,5.736,2,2.51,199,125.47,-80.13772134,25.91270598,0,0,1,N,1.648814,73,73,11,96,96,120.9751,0,9999.99,3.19,3.317,2,9,26.8,0,26.79999924,49.66,1554.20163,12/16/21,14:18:46,26.17,72.23,49.66,1.208,8.01,-59.8,-3.5,-1.9,-1279,69.6,4.26,12.8,
25.9127286,-80.13775831,43:09.8,12/16/21,4,3.142,133.12,-7.142358562,2.12,136.5,127.74,2.69,6.6,30.4,0,3.17,3.17,45,86,249.5,14.5,-5.9,D,174.6,1,4.472,2,2.62,198,124.22,-80.13772134,25.91270598,0,0,1,N,1.19692,72,72,11,85,85,117.8353,0,9999.99,3.19,3.317,2,9,26.8,0,26.79999924,49.49,1554.0197,12/16/21,14:18:47,26.16,72.03,49.49,1.285,8.01,-59.7,-2.8,-0.1,-781,69.1,4.23,12.7,
25.91271883,-80.1377452,43:10.8,12/16/21,4,3.711,131.06,-7.142358562,2.12,132.9,124.38,3.63,8.3,30.4,0,3.16,3.16,45,76,249.5,14.5,-5.2,D,197.1,1,2.781,2,2.71,196,120.9,-80.13772134,25.91270598,0,0,1,N,0.5995975,78,78,11,81,81,113.613,0,9999.99,3.19,3.317,2,9,26.9,0,26.79999924,49.64,1554.18033,12/16/21,14:18:48,26.12,72.21,49.64,1.21,8.01,-59.8,-4.4,-2.9,501,68.8,4.21,12.6,
25.91270681,-80.13773186,43:11.8,12/16/21,4,3.248,131.6,-7.142358562,2.12,135.4,126.71,1.96,15.1,30.4,0.01,3.13,3.13,45,76,249.5,14.5,-5.2,D,197.1,2,10.415,2,2.7,194,164.95,-80.13770483,25.91261636,0,0,1,N,1.141414,69,69,11,250,250,162.8874,0,9999.99,3.15,3.274679,2,9,26.9,0,26.89999962,49.66,1554.41766,12/16/21,14:18:49,26.14,72.23,49.66,1.214,8.01,-60,-3.5,-3.4,-1916,68.5,4.19,12.7,
25.91269865,-80.13772046,43:12.8,12/16/21,4,2.453,128.9,-7.142358562,2.12,148.6,139.11,1.93,14.7,30.4,0,3.14,3.15,45,76,249.5,14.5,-5.2,D,197.1,2,9.283,2,2.61,192,170.31,-80.13770483,25.91261636,0,0,1,N,0.1309149,69,69,11,249,249,169.6539,0,9999.99,3.16,3.288171,2,9,26.9,0,26.89999962,49.64,1554.39594,12/16/21,14:18:51,26.15,72.21,49.64,1.226,8.02,-60.1,-3.2,-2.7,-2177,67.9,4.15,12.8,
25.91269249,-80.13771689,43:13.8,12/16/21,4,2.596,137.42,-7.142358562,2.12,162.4,152.33,4.4,8.7,30.4,0,3.23,3.23,45,67,249.5,14.5,-4.6,D,225.1,2,8.551,2,2.36,191,171.89,-80.13770483,25.91261636,0,0,1,N,0.1474968,80,80,11,210,210,171.6477,0,9999.99,3.26,3.387,2,9,26.9,0,26.89999962,49.64,1554.39594,12/16/21,14:18:51,26.15,72.21,49.64,1.226,8.02,-60.1,-3.2,-2.7,-2177,67.9,4.15,12.8,
25.91268301,-80.13771077,43:14.8,12/16/21,4,2.617,139.35,-7.142358562,2.12,172,161.72,2.99,4.61,30.4,0.01,3.2,3.21,45,67,249.5,14.5,-4.6,D,225.1,2,7.435,2,2.29,190,175.42,-80.13770483,25.91261636,0,0,1,N,0.6020642,75,75,11,180,180,174.8953,0,9999.99,3.23,3.357,2,9,26.8,0,26.89999962,49.67,1554.42849,12/16/21,14:18:53,26.15,72.25,49.67,1.166,8.02,-60.5,-3.3,-4.7,218,67.3,4.12,12.7,
25.91267511,-80.13770876,43:15.8,12/16/21,4,2.459,139.35,-7.142358562,2.12,177.7,167.38,1.36,5.52,30.4,0,3.21,3.21,45,67,249.5,14.5,-4.6,D,225.1,2,6.545,2,2.31,190,176.55,-80.13770483,25.91261636,0,0,1,N,0.6676522,69,69,11,162,162,175.3622,0,9999.99,3.23,3.357,2,9,26.9,0,26.89999962,49.67,1554.42815,12/16/21,14:18:54,26.16,72.25,49.67,1.227,8.03,-60.8,-1.7,-2,-481,67.2,4.11,12.7,
25.91266122,-80.13770566,43:16.8,12/16/21,4,2.231,139.35,-7.142358562,2.13,180.3,169.98,1.49,4.36,30.4,0,3.2,3.2,45,67,249.5,14.5,-4.6,D,225.1,2,4.988,2,2.31,190,179.04,-80.13770483,25.91261636,0,0,1,N,0.7284136,66,66,11,150,150,175.7936,0,9999.99,3.21,3.337,2,9,26.9,0,26.89999962,49.67,1554.42815,12/16/21,14:18:54,26.16,72.25,49.67,1.227,8.03,-60.8,-1.7,-2,-481,67.2,4.11,12.7,
25.91265246,-80.13770646,43:17.8,12/16/21,4,2.39,139.35,-7.142358562,2.13,184.3,174,1.43,4.06,30.4,0,3.17,3.17,45,58,249.5,14.5,-3.9,D,260.3,2,4.019,2,2.36,189,177.67,-80.13770483,25.91261636,0,0,1,N,0.501236,66,66,11,128,128,174.1764,0,9999.99,3.18,3.307,2,9,26.9,0,26.89999962,49.68,1554.43848,12/16/21,14:18:55,26.16,72.26,49.68,1.261,8.02,-60.5,-2.9,-4.3,-1071,67,4.09,12.8,
25.91264127,-80.13770679,43:18.8,12/16/21,4,2.51,152.82,-7.142358562,2.13,183.7,173.4,0.46,0.95,30.4,0,3.18,3.18,45,58,249.5,14.5,-3.9,D,260.3,3,79.579,2,2.35,189,150.41,-80.13731395,25.91201891,0,0,1,N,1.292145,60,60,11,55,55,155.3906,0,9999.99,3.18,3.307,2,9,26.9,0,26.89999962,49.69,1554.44924,12/16/21,14:18:57,26.16,72.27,49.69,1.254,8.03,-61.1,-3,-3.6,-205,66.7,4.08,12.7,
25.91263091,-80.13770783,43:19.8,12/16/21,4,2.321,152.82,-7.142358562,2.13,178,167.68,0.82,7.6,30.4,0,3.18,3.18,45,58,249.5,14.5,-3.9,D,260.3,3,78.632,2,2.32,188,149.93,-80.13731395,25.91201891,0,0,1,N,0.6071505,62,62,11,67,67,152.6826,0,9999.99,3.19,3.317,2,9,26.9,0,26.89999962,49.69,1554.44924,12/16/21,14:18:57,26.16,72.27,49.69,1.254,8.03,-61.1,-3,-3.6,-205,66.7,4.08,12.7,
25.91262134,-80.13771025,43:20.8,12/16/21,4,2.067,152.82,-7.142358562,2.13,173.5,163.21,2.03,5.11,30.5,0,3.18,3.18,45,59,249.5,14.5,-4,D,256.1,3,77.836,2,2.31,188,149.39,-80.13731395,25.91201891,0,0,1,N,0.1601873,69,69,11,68,68,148.5648,0,9999.99,3.2,3.327,2,9,26.9,0,26.89999962,49.69,1554.44928,12/16/21,14:18:58,26.16,72.27,49.69,1.264,8.04,-61.3,-2.6,-7.3,-1776,66.6,4.07,12.7,
25.91261242,-80.13771164,43:21.9,12/16/21,4,2.069,152.82,-7.142358562,2.13,167.1,156.91,1.64,7.19,30.4,0,3.18,3.18,45,59,249.5,14.5,-4,D,256.1,3,77.055,2,2.36,188,148.92,-80.13731395,25.91201891,0,0,1,N,0.795089,67,67,11,75,75,144.0011,0,9999.99,3.19,3.317,2,9,26.9,0,26.89999962,49.63,1554.38515,12/16/21,14:19:00,26.14,72.19,49.63,1.209,8.03,-60.9,-1.5,1.5,-110,66.3,4.06,12.6,
25.91260149,-80.13770719,43:22.9,12/16/21,4,2.597,152.82,-7.142358562,2.13,164.2,154.08,1.37,3.13,30.4,0,3.19,3.19,45,59,249.5,14.5,-4,D,256.1,3,75.785,2,2.36,188,148.74,-80.13731395,25.91201891,0,0,1,N,1.037153,65,65,11,79,79,142.1374,0,9999.99,3.19,3.317,2,9,26.9,0,26.89999962,49.63,1554.38515,12/16/21,14:19:00,26.14,72.19,49.63,1.209,8.03,-60.9,-1.5,1.5,-110,66.3,4.06,12.6,
25.91259074,-80.1377021,43:23.9,12/16/21,4,2.398,156.65,-7.142358562,2.13,160.7,150.69,1.33,4.92,30.5,0,3.18,3.18,45,59,249.5,14.5,-4,D,256.1,3,74.499,2,2.33,187,148.59,-80.13731395,25.91201891,0,0,1,N,1.212577,65,65,11,88,88,140.9049,0,9999.99,3.19,3.317,2,9,26.9,0,26.89999962,49.62,1554.3744,12/16/21,14:19:02,26.09,72.18,49.62,1.196,8.03,-60.9,-2.6,-2.9,-1915,66.1,4.04,12.7,
25.91258176,-80.13769688,43:24.9,12/16/21,4,2.387,155.52,-7.142358562,2.13,156.9,147.03,2.42,4.79,30.4,0,3.15,3.15,45,56,249.5,14.5,-3.8,D,266.6,3,73.376,2,2.34,187,148.54,-80.13731395,25.91201891,0,0,1,N,1.279462,72,72,11,101,101,140.4368,0,9999.99,3.17,3.297,2,9,26.9,0,26.89999962,49.62,1554.3744,12/16/21,14:19:02,26.09,72.18,49.62,1.196,8.03,-60.9,-2.6,-2.9,-1915,66.1,4.04,12.7,
25.91257193,-80.13769163,43:25.9,12/16/21,4,2.524,152.66,-7.142358562,2.13,155.5,145.68,0.78,5.14,30.5,0,3.15,3.15,45,56,249.5,14.5,-3.8,D,266.6,3,72.169,2,2.32,186,148.44,-80.13731395,25.91201891,0,0,1,N,1.386414,62,62,11,103,103,139.6923,0,9999.99,3.16,3.287,2,9,26.9,0,26.89999962,49.69,1554.44936,12/16/21,14:19:03,26.08,72.27,49.69,1.236,8.03,-61.1,-2.2,-5.4,-1466,66,4.04,12.7,
25.91256337,-80.13768739,43:26.9,12/16/21,4,2.504,151,-7.142358562,2.13,153.9,144.15,1.61,4.69,30.5,0,3.16,3.16,45,54,249.5,14.5,-3.7,D,275.8,3,71.135,2,2.3,186,148.33,-80.13731395,25.91201891,0,0,1,N,1.505481,70,70,11,106,106,138.8671,0,9999.99,3.18,3.307,2,9,26.8,0,26.89999962,49.65,1554.40653,12/16/21,14:19:04,26.07,72.22,49.65,1.233,8.03,-60.8,-2.5,-5.7,-691,65.8,4.03,12.5,
25.91255417,-80.13768004,43:27.9,12/16/21,4,2.336,149.22,-7.142358562,2.13,153,143.29,0.18,4.92,30.4,0,3.2,3.2,45,54,249.5,14.5,-3.7,D,275.8,3,69.879,2,2.27,186,148.4,-80.13731395,25.91201891,0,0,1,N,1.390361,58,58,11,112,112,139.6651,0,9999.99,3.21,3.337,2,9,26.9,0,26.79999924,49.65,1554.19093,12/16/21,14:19:05,26.05,72.22,49.65,1.195,8.03,-60.9,-1.8,-2.8,-3085,65.6,4.02,12.8,
25.91254312,-80.13767097,43:28.9,12/16/21,4,2.033,150.3,-7.142358562,2.13,152.1,142.44,1.55,4.57,30.4,0,3.19,3.19,45,54,249.5,14.5,-3.7,D,275.8,3,68.358,2,2.29,185,148.51,-80.13731395,25.91201891,0,0,1,N,1.236497,66,66,11,120,120,140.738,0,9999.99,3.2,3.327,2,9,26.8,0,26.89999962,49.65,1554.40655,12/16/21,14:19:07,26.05,72.22,49.65,1.24,8.03,-60.7,-3.5,-4.4,-3194,65.4,4,12.7,
25.91253456,-80.13766616,43:29.9,12/16/21,4,2.296,146.87,-7.142358562,2.13,151.7,142.05,1.1,4.09,30.4,0,3.19,3.19,45,51,249.5,14.5,-3.5,D,294.2,3,67.294,2,2.33,185,148.43,-80.13731395,25.91201891,0,0,1,N,1.303077,66,66,11,121,121,140.2732,0,9999.99,3.2,3.327,2,9,26.8,0,26.89999962,49.65,1554.40655,12/16/21,14:19:07,26.05,72.22,49.65,1.24,8.03,-60.7,-3.5,-4.4,-3194,65.4,4,12.7,
25.91252626,-80.13766167,43:30.9,12/16/21,4,2.491,146.1,-7.142358562,2.13,150.6,141.01,1.17,4.33,30.4,0,3.22,3.22,45,51,249.5,14.5,-3.5,D,294.2,3,66.273,2,2.33,185,148.35,-80.13731395,25.91201891,0,0,1,N,1.382102,63,63,11,120,120,139.7225,0,9999.99,3.23,3.357,2,9,26.8,0,26.79999924,49.67,1554.21224,12/16/21,14:19:08,26.05,72.24,49.67,1.255,8.03,-60.7,-3.1,-7.1,-3335,65.3,4,12.6,
25.91251694,-80.13765796,43:31.9,12/16/21,4,2.424,145.61,-7.142358562,2.13,154.9,145.11,0.21,0.27,30.4,0,3.23,3.23,45,51,249.5,14.5,-3.5,D,294.2,3,65.197,2,2.32,184,148.15,-80.13731395,25.91201891,0,0,1,N,1.580462,58,58,11,100,100,138.3489,0,9999.99,3.23,3.357,2,9,26.8,0,26.79999924,49.68,1554.22288,12/16/21,14:19:10,26.05,72.26,49.68,1.317,8.02,-60.5,-2.3,-0.8,-907,65.1,3.99,12.7,
25.91250772,-80.13765025,43:32.9,12/16/21,4,2.064,147.83,-7.142358562,2.13,153.3,143.58,0.82,3.2,30.4,0,3.22,3.22,45,51,249.5,14.5,-3.5,D,294.2,3,63.919,2,2.27,184,148.25,-80.13731395,25.91201891,0,0,1,N,1.444401,66,66,11,115,115,139.2899,0,9999.99,3.23,3.357,2,9,26.8,0,26.79999924,49.68,1554.22288,12/16/21,14:19:10,26.05,72.26,49.68,1.317,8.02,-60.5,-2.3,-0.8,-907,65.1,3.99,12.7,
25.91249924,-80.137644,43:33.9,12/16/21,4,2.275,147.86,-7.142358562,2.13,151.9,142.24,1.13,4.4,30.4,0,3.25,3.25,45,49,249.5,14.5,-3.3,D,308.8,3,62.788,2,2.27,184,148.28,-80.13731395,25.91201891,0,0,1,N,1.38231,64,64,11,117,117,139.7209,0,9999.99,3.26,3.387,2,9,26.8,0,26.79999924,49.66,1554.2015,12/16/21,14:19:11,26.05,72.23,49.66,1.235,8.03,-60.9,-1.8,-6.1,-2477,65,3.98,12.7,
25.91249249,-80.13764071,43:34.9,12/16/21,4,2.272,148.19,-7.142358562,2.13,151.3,141.67,0.46,5.17,30.4,0,3.26,3.26,45,49,249.5,14.5,-3.3,D,308.8,3,61.977,2,2.26,183,148.18,-80.13731395,25.91201891,0,0,1,N,1.479271,60,60,11,116,116,139.0477,0,9999.99,3.27,3.397,2,9,26.8,0,26.79999924,49.72,1554.26577,12/16/21,14:19:13,26.05,72.3,49.72,1.234,8.03,-60.8,-2.3,-0.2,-1656,64.7,3.96,12.8,
25.91248122,-80.13762804,43:35.9,12/16/21,4,2.413,145.07,-7.142358562,2.13,152.6,142.91,0.23,2.03,30.4,0,3.2,3.2,45,49,249.5,14.5,-3.3,D,308.8,3,60.246,2,2.28,183,148.57,-80.13731395,25.91201891,0,0,1,N,1.021148,58,58,11,124,124,142.25,0,9999.99,3.2,3.327,2,9,26.8,0,26.79999924,49.72,1554.26577,12/16/21,14:19:13,26.05,72.3,49.72,1.234,8.03,-60.8,-2.3,-0.2,-1656,64.7,3.96,12.8,
25.91247167,-80.13762007,43:36.9,12/16/21,4,2.173,146.34,-7.142358562,2.13,153.7,143.96,1.5,2.46,30.4,0,3.27,3.27,45,48,249.5,14.5,-3.2,D,315.6,3,58.924,2,2.25,183,148.69,-80.13731395,25.91201891,0,0,1,N,0.8693706,62,62,11,125,125,143.322,0,9999.99,3.27,3.397,2,9,26.8,0,26.79999924,49.71,1554.25495,12/16/21,14:19:14,26.05,72.3,49.71,1.263,8.03,-60.8,-2.1,-5.9,-2615,64.7,3.96,12.6,
25.91246387,-80.13761648,43:37.9,12/16/21,4,2.099,148.08,-7.142358562,2.13,154.1,144.34,0.95,2.9,30.4,0,3.28,3.28,45,48,249.5,14.5,-3.2,D,315.6,3,57.997,2,2.25,183,148.55,-80.13731395,25.91201891,0,0,1,N,0.995531,63,63,11,119,119,142.4306,0,9999.99,3.29,3.417,2,9,26.8,0,26.79999924,49.71,1554.25516,12/16/21,14:19:16,26.06,72.29,49.71,1.219,8.03,-61,-3.1,-1.4,-5544,64.6,3.95,12.6,
25.91245719,-80.13761263,43:38.9,12/16/21,4,2.158,148.44,-7.142358562,2.13,153.8,144.06,0.89,2.23,30.4,0,3.3,3.3,45,48,249.5,14.5,-3.2,D,315.6,3,57.163,2,2.24,182,148.49,-80.13731395,25.91201891,0,0,1,N,1.042511,62,62,11,119,119,142.0995,0,9999.99,3.3,3.427,2,9,26.8,0,26.79999924,49.71,1554.25516,12/16/21,14:19:16,26.06,72.29,49.71,1.219,8.03,-61,-3.1,-1.4,-5544,64.6,3.95,12.6,
25.91244842,-80.13760694,43:39.9,12/16/21,4,2.294,150.06,-7.142358562,2.13,154.6,144.82,0.77,3.44,30.4,0,3.31,3.31,45,48,249.5,14.5,-3.2,D,315.6,3,56.033,2,2.27,182,148.47,-80.13731395,25.91201891,0,0,1,N,1.045072,62,62,11,114,114,142.0815,0,9999.99,3.31,3.437,2,9,26.8,0,26.79999924,49.74,1554.28723,12/16/21,14:19:17,26.06,72.33,49.74,1.23,8.03,-61.1,-1.3,-0.9,-2159,64.5,3.95,12.7,
25.91243861,-80.13759739,43:41.0,12/16/21,4,2.012,150.13,-7.142358562,2.13,152.1,142.44,0.95,3.99,30.4,0,3.31,3.31,45,46,249.4,14.5,-3.1,D,326,3,54.604,2,2.25,182,148.72,-80.13731395,25.91201891,0,0,1,N,0.7803717,60,60,11,127,127,143.9526,0,9999.99,3.31,3.437,2,9,26.8,0,26.79999924,49.72,1554.26571,12/16/21,14:19:18,26.08,72.31,49.72,1.223,8.03,-61,-1.5,-4.3,-2541,64.6,3.95,12.8,
25.91242894,-80.13758998,43:42.0,12/16/21,4,2.023,150.13,-7.142358562,2.13,155.3,145.49,0.65,3.79,30.3,0,3.33,3.33,45,46,249.4,14.5,-3.1,D,326,3,53.301,2,2.21,182,148.8,-80.13731395,25.91201891,0,0,1,N,0.6804849,61,61,11,124,124,144.6622,0,9999.99,3.33,3.457,2,9,26.8,0,26.79999924,49.72,1554.26587,12/16/21,14:19:19,26.08,72.3,49.72,1.246,8.04,-61.3,-2,-1,-4410,64.5,3.95,12.8,
25.91242012,-80.13758327,43:42.9,12/16/21,4,2.304,149.15,-7.142358562,2.13,156.2,146.35,0.48,1.88,30.4,0,3.34,3.34,45,46,249.4,14.5,-3.1,D,326,3,52.114,2,2.19,182,148.88,-80.13731395,25.91201891,0,0,1,N,0.6005644,61,61,11,126,126,145.2309,0,9999.99,3.35,3.477,2,9,26.8,0,26.79999924,49.69,1554.23384,12/16/21,14:19:21,26.07,72.27,49.69,1.234,8.04,-61.4,-2.1,-3.8,-4218,64.6,3.95,12.9,
25.91240942,-80.13757562,43:44.0,12/16/21,4,2.643,148.34,-7.142358562,2.13,158.5,148.56,0.57,2.75,30.4,0,3.36,3.36,45,46,249.4,14.5,-3.1,D,326,3,50.7,2,2.18,182,148.92,-80.13731395,25.91201891,0,0,1,N,0.5343455,60,60,11,116,116,145.7027,0,9999.99,3.36,3.487,2,9,26.8,0,26.79999924,49.69,1554.23384,12/16/21,14:19:21,26.07,72.27,49.69,1.234,8.04,-61.4,-2.1,-3.8,-4218,64.6,3.95,12.9,
25.91239956,-80.13756714,43:45.0,12/16/21,4,2.209,149.39,-7.142358562,2.13,157.9,147.99,0.61,1.68,30.3,0,3.36,3.36,45,46,249.4,14.5,-3.1,D,326.2,3,49.323,2,2.13,182,149.11,-80.13731395,25.91201891,0,0,1,N,0.3603327,61,61,11,123,123,146.945,0,9999.99,3.37,3.497,2,9,26.8,0,26.79999924,49.67,1554.21235,12/16/21,14:19:22,26.07,72.24,49.67,1.257,8.04,-61.3,-1.9,0,-4233,64.6,3.95,12.7,
25.91239089,-80.13756219,43:46.0,12/16/21,4,2.069,151.18,-7.142358562,2.13,159.6,149.62,0.3,2.77,30.4,0,3.31,3.32,45,46,249.4,14.5,-3.1,D,326.2,3,48.242,2,2.18,182,149.03,-80.13731395,25.91201891,0,0,1,N,0.4205905,59,59,11,115,115,146.5144,0,9999.99,3.32,3.447,2,9,26.8,0,26.79999924,49.69,1554.23373,12/16/21,14:19:24,26.06,72.27,49.69,1.261,8.04,-61.3,-2.4,-2,-4253,64.5,3.95,12.5,
25.91238039,-80.13755387,43:47.0,12/16/21,4,2.288,151.77,-7.142358562,2.13,159.4,149.43,0.73,2.52,30.4,0,3.33,3.33,45,46,249.4,14.5,-3.1,D,326.2,3,46.813,2,2.17,181,149.16,-80.13731395,25.91201891,0,0,1,N,0.2997226,59,59,11,121,121,147.3784,0,9999.99,3.33,3.457,2,9,26.8,0,26.79999924,49.69,1554.23373,12/16/21,14:19:24,26.06,72.27,49.69,1.261,8.04,-61.3,-2.4,-2,-4253,64.5,3.95,12.5,
25.91237217,-80.13755153,43:48.0,12/16/21,4,2.225,153.54,-7.142358562,2.13,160.1,150.11,1.07,1.92,30.4,0,3.33,3.33,45,45,249.4,14.5,-3.1,D,331.8,3,45.909,2,2.16,181,148.83,-80.13731395,25.91201891,0,0,1,N,0.5562726,62,62,11,108,108,145.5464,0,9999.99,3.34,3.467,2,9,26.8,0,26.79999924,49.67,1554.21215,12/16/21,14:19:25,26.06,72.25,49.67,1.192,8.04,-61.6,-1.8,-2.3,-4326,64.6,3.96,12.7,
25.91236286,-80.13754722,43:48.9,12/16/21,4,2.19,155.84,-7.142358562,2.13,159.6,149.62,0.49,3.86,30.4,0,3.34,3.34,45,45,249.4,14.5,-3.1,D,331.8,3,44.801,2,2.17,181,148.62,-80.13731395,25.91201891,0,0,1,N,0.7105378,60,60,11,106,106,144.4484,0,9999.99,3.35,3.477,2,9,26.8,0,26.79999924,49.67,1554.21219,12/16/21,14:19:27,26.04,72.25,49.67,1.217,8.04,-61.6,-2.3,-6.2,-2342,64.4,3.95,12.7,
25.91235369,-80.13754224,43:50.0,12/16/21,4,2.054,154.81,-7.142358562,2.13,159.2,149.24,0.47,2.69,30.4,0,3.36,3.36,45,45,249.4,14.5,-3.1,D,331.8,3,43.671,2,2.2,181,148.48,-80.13731395,25.91201891,0,0,1,N,0.7974842,60,60,11,105,105,143.8313,0,9999.99,3.36,3.487,2,9,26.8,0,26.79999924,49.67,1554.21219,12/16/21,14:19:27,26.04,72.25,49.67,1.217,8.04,-61.6,-2.3,-6.2,-2342,64.4,3.95,12.7,
25.91234451,-80.13753708,43:50.9,12/16/21,4,2.33,154.25,-7.142358562,2.13,158.7,148.76,0.77,3.84,30.4,0,3.33,3.33,45,45,249.4,14.5,-3.1,D,331.8,3,42.531,2,2.17,181,148.35,-80.13731395,25.91201891,0,0,1,N,0.8729631,62,62,11,107,107,143.2964,0,9999.99,3.34,3.467,2,9,26.8,0,26.79999924,49.67,1554.21229,12/16/21,14:19:28,26.04,72.25,49.67,1.266,8.04,-61.4,-2,-3.5,-4048,64.4,3.94,12.6,
25.91233976,-80.13754138,43:52.0,12/16/21,5,1.625,160.31,-7.142358562,1.35,157.6,147.7,0.63,3.61,30.3,0,3.33,3.33,45,45,249.4,14.5,-3.1,D,330.9,3,42.312,2,2.15,181,147.48,-80.13731395,25.91201891,0,0,1,N,1.51475,61,61,11,91,91,138.8024,0,9999.99,3.34,3.467,2,9,26.8,0,26.79999924,49.68,1554.22301,12/16/21,14:19:29,26.04,72.25,49.68,1.252,8.04,-61.4,-1.2,-6.3,-2898,64.3,3.94,12.8,
25.91233286,-80.13753964,43:53.0,12/16/21,5,2.171,154.22,-7.142358562,1.35,156.8,146.93,1.02,2.29,30.4,0,3.31,3.32,45,45,249.4,14.5,-3.1,D,330.9,3,41.572,2,2.16,181,147.11,-80.13731395,25.91201891,0,0,1,N,1.757171,63,63,11,88,88,137.1359,0,9999.99,3.32,3.447,2,9,26.8,0,26.79999924,49.67,1554.21231,12/16/21,14:19:30,26.04,72.24,49.67,1.201,8.04,-61.2,-2.6,-4.6,-2119,64.2,3.93,12.7,
25.91232383,-80.1375351,43:54.0,12/16/21,5,2.017,154.46,-7.142358562,1.35,155.3,145.49,0.9,2.25,30.4,0,3.32,3.32,45,45,249.4,14.5,-3.1,D,330.9,3,40.483,2,2.17,181,146.88,-80.13731395,25.91201891,0,0,1,N,1.878608,61,61,11,89,89,136.3089,0,9999.99,3.32,3.447,2,9,26.8,0,26.79999924,49.67,1554.21225,12/16/21,14:19:32,26.04,72.24,49.67,1.237,8.03,-61.2,-2.4,-4.1,-130,64.3,3.94,12.7,
25.91231579,-80.13753217,43:54.9,12/16/21,5,2.188,152.75,-7.142358562,1.35,152.8,143.1,0.63,3.88,30.4,0,3.32,3.32,45,46,249.4,14.5,-3.2,D,323.1,3,39.575,2,2.17,181,146.53,-80.13731395,25.91201891,0,0,1,N,2.082853,61,61,11,94,94,134.9307,0,9999.99,3.32,3.447,2,9,26.8,0,26.79999924,49.67,1554.21225,12/16/21,14:19:32,26.04,72.24,49.67,1.237,8.03,-61.2,-2.4,-4.1,-130,64.3,3.94,12.7,
25.91230785,-80.13752822,43:55.9,12/16/21,5,2.185,152.27,-7.142358562,1.35,151.9,142.24,0.3,3.19,30.4,0,3.35,3.35,45,46,249.4,14.5,-3.2,D,323.1,3,38.62,2,2.15,181,146.3,-80.13731395,25.91201891,0,0,1,N,2.191283,59,59,11,95,95,134.2057,0,9999.99,3.36,3.487,2,9,26.8,0,26.79999924,49.67,1554.21216,12/16/21,14:19:33,26.04,72.24,49.67,1.224,8.04,-61.3,-2.5,-4.6,-1023,64.5,3.95,12.7,
25.9123,-80.13752225,43:57.0,12/16/21,5,2.2,145.94,-7.142358562,1.35,149.4,139.87,0.74,3.86,30.4,0,3.35,3.35,45,46,249.4,14.5,-3.2,D,323.1,3,37.563,2,2.14,181,146.31,-80.13731395,25.91201891,0,0,1,N,2.124144,61,61,11,106,106,134.6541,0,9999.99,3.35,3.477,2,9,26.8,0,26.79999924,49.64,1554.18025,12/16/21,14:19:35,26.03,72.2,49.64,1.255,8.04,-61.5,-1.5,0.1,-5035,64.3,3.94,12.8,
25.9122912,-80.13751575,43:57.9,12/16/21,5,2.089,145.52,-7.142358562,1.35,148.9,139.39,1.04,1.03,30.4,0,3.36,3.36,45,46,249.4,14.5,-3.2,D,323.1,3,36.388,2,2.16,181,146.31,-80.13731395,25.91201891,0,0,1,N,2.063398,62,62,11,109,109,135.0611,0,9999.99,3.36,3.487,2,9,26.8,0,26.79999924,49.64,1554.18025,12/16/21,14:19:35,26.03,72.2,49.64,1.255,8.04,-61.5,-1.5,0.1,-5035,64.3,3.94,12.8,
25.91228333,-80.13751004,43:59.0,12/16/21,5,2.038,146.18,-7.142358562,1.35,147.9,138.45,0.73,3.53,30.4,0,3.36,3.36,45,46,249.3,14.5,-3.1,D,328.3,3,35.343,2,2.14,181,146.3,-80.13731395,25.91201891,0,0,1,N,2.020873,61,61,11,116,116,135.3471,0,9999.99,3.37,3.497,2,9,26.8,0,26.79999924,49.65,1554.19088,12/16/21,14:19:36,26.03,72.22,49.65,1.195,8.04,-61.3,-2,-2.1,-3000,64.2,3.93,12.6,
25.91227676,-80.13750514,44:00.0,12/16/21,5,2.046,143.44,-7.142358562,1.35,148.1,138.64,0.33,0.18,30.4,0,3.37,3.37,45,46,249.3,14.5,-3.1,D,328.3,3,34.463,2,2.13,180,146.3,-80.13731395,25.91201891,0,0,1,N,1.961832,59,59,11,115,115,135.7453,0,9999.99,3.37,3.497,2,9,26.8,0,26.79999924,49.64,1554.1801,12/16/21,14:19:37,26.03,72.2,49.64,1.212,8.03,-61.2,-1.9,1,-3811,64.3,3.94,12.7,
25.91226865,-80.1374988,44:01.0,12/16/21,5,2.125,144.85,-7.142358562,1.35,147.4,137.97,0.64,4.64,30.4,0,3.37,3.37,45,46,249.3,14.5,-3.1,D,328.3,3,33.362,2,2.15,180,146.35,-80.13731395,25.91201891,0,0,1,N,1.87719,61,61,11,120,120,136.3185,0,9999.99,3.38,3.507,2,9,26.8,0,26.79999924,49.66,1554.20147,12/16/21,14:19:39,26.03,72.24,49.66,1.247,8.03,-61.2,-2.2,-3.9,-1835,64.2,3.94,12.8,
25.91226107,-80.13749288,44:01.9,12/16/21,5,2.064,143.79,-7.142358562,1.35,148.5,139.02,0.59,0.61,30.4,0,3.34,3.34,45,44,249.3,14.5,-3,D,338,3,32.332,2,2.15,180,146.39,-80.13731395,25.91201891,0,0,1,N,1.792007,59,59,11,118,118,136.8981,0,9999.99,3.34,3.467,2,9,26.8,0,26.79999924,49.66,1554.20147,12/16/21,14:19:39,26.03,72.24,49.66,1.247,8.03,-61.2,-2.2,-3.9,-1835,64.2,3.94,12.8,
25.91225379,-80.1374873,44:03.0,12/16/21,5,2.124,144.32,-7.142358562,1.35,148.5,139.02,0.4,3.43,30.4,0,3.4,3.4,45,44,249.3,14.5,-3,D,338,3,31.348,2,2.1,180,146.42,-80.13731395,25.91201891,0,0,1,N,1.720094,59,59,11,120,120,137.3894,0,9999.99,3.4,3.527,2,9,26.8,0,26.79999924,49.67,1554.21242,12/16/21,14:19:40,26.03,72.25,49.67,1.239,8.04,-61.4,-2.6,-0.4,-118,64.2,3.93,12.5,
25.91224682,-80.13748147,44:04.0,12/16/21,5,2.008,144.02,-7.142358562,1.35,147.4,137.97,0.56,2.28,30.4,0,3.42,3.42,45,44,249.3,14.5,-3,D,338,3,30.381,2,2.12,180,146.53,-80.13731395,25.91201891,0,0,1,N,1.612618,60,60,11,128,128,138.1272,0,9999.99,3.42,3.547,2,9,26.8,0,26.79999924,49.7,1554.24435,12/16/21,14:19:42,26.06,72.28,49.7,1.277,8.05,-62.3,-1.7,-3.9,54,64.3,3.94,12.8,
25.91223856,-80.13747417,44:05.0,12/16/21,5,2.086,143.06,-7.142358562,1.35,148.4,138.92,0.21,3.19,30.3,0,3.45,3.45,45,44,249.3,14.5,-3,D,338,3,29.212,2,2.09,180,146.73,-80.13731395,25.91201891,0,0,1,N,1.450944,58,58,11,128,128,139.2442,0,9999.99,3.46,3.587,2,9,26.8,0,26.79999924,49.7,1554.24435,12/16/21,14:19:42,26.06,72.28,49.7,1.277,8.05,-62.3,-1.7,-3.9,54,64.3,3.94,12.8,
25.91223182,-80.1374688,44:06.0,12/16/21,5,2.01,143.62,-7.142358562,1.35,148.5,139.02,1,2.65,30.3,0,3.43,3.43,45,43,249.3,14.5,-3,D,344.3,3,28.29,2,2.08,180,146.81,-80.13731395,25.91201891,0,0,1,N,1.367989,62,62,11,131,131,139.8204,0,9999.99,3.44,3.567,2,9,26.8,0,26.79999924,49.69,1554.23357,12/16/21,14:19:43,26.06,72.27,49.69,1.197,8.05,-61.9,-2.7,-1.9,-1452,64.3,3.94,12.7,
25.9122238,-80.13746311,44:07.0,12/16/21,5,2.075,143.89,-7.142358562,1.35,149.4,139.87,0.7,2.56,30.3,0,3.48,3.48,45,43,249.3,14.5,-3,D,344.3,3,27.232,2,2.09,180,146.78,-80.13731395,25.91201891,0,0,1,N,1.323193,60,60,11,127,127,140.1324,0,9999.99,3.48,3.607,2,9,26.8,0,26.79999924,49.7,1554.24437,12/16/21,14:19:45,26.07,72.28,49.7,1.233,8.05,-62.1,-2.2,-4.3,-3306,64.4,3.94,12.7,
25.9122155,-80.13745698,44:07.9,12/16/21,5,2.09,143.94,-7.142358562,1.35,149.8,140.25,0.65,3.32,30.4,0,3.46,3.46,45,43,249.3,14.5,-3,D,344.3,3,26.124,2,2.1,180,146.8,-80.13731395,25.91201891,0,0,1,N,1.267569,61,61,11,128,128,140.5206,0,9999.99,3.47,3.597,2,9,26.8,0,26.79999924,49.7,1554.24437,12/16/21,14:19:45,26.07,72.28,49.7,1.233,8.05,-62.1,-2.2,-4.3,-3306,64.4,3.94,12.7,
25.91220811,-80.13745139,44:09.0,12/16/21,5,2.069,143.71,-7.142358562,1.35,150.8,141.2,0.3,0.86,30.3,0,3.47,3.47,45,44,249.3,14.5,-3,D,341,3,25.131,2,2.08,180,146.84,-80.13731395,25.91201891,0,0,1,N,1.199817,59,59,11,126,126,140.9945,0,9999.99,3.47,3.597,2,9,26.8,0,26.79999924,49.71,1554.25501,12/16/21,14:19:46,26.07,72.29,49.71,1.236,8.05,-62.3,-1.8,-4.1,-5332,64.4,3.94,12.7,
25.91220006,-80.13744585,44:09.9,12/16/21,5,2.084,145.71,-7.142358562,1.35,152,142.34,0.81,3.24,30.3,0,3.49,3.49,45,44,249.3,14.5,-3,D,341,3,24.079,2,2.09,180,146.78,-80.13731395,25.91201891,0,0,1,N,1.171518,60,60,11,123,123,141.1929,0,9999.99,3.49,3.617,2,9,26.8,0,26.79999924,49.73,1554.27648,12/16/21,14:19:47,26.07,72.32,49.73,1.21,8.05,-62.3,-3,1.5,-6534,64.5,3.95,12.7,
25.91219239,-80.13744072,44:11.0,12/16/21,5,1.971,146.57,-7.142358562,1.35,152,142.34,0.52,2.22,30.4,0,3.47,3.48,45,44,249.3,14.5,-3,D,341,3,23.084,2,2.07,180,146.68,-80.13731395,25.91201891,0,0,1,N,1.161371,62,62,11,123,123,141.2641,0,9999.99,3.48,3.607,2,9,26.8,0,26.79999924,49.71,1554.25507,12/16/21,14:19:48,26.08,72.29,49.71,1.226,8.05,-62.2,-3,1,-2752,64.7,3.96,12.6,
25.91218385,-80.13743507,44:12.0,12/16/21,5,2.016,147.83,-7.142358562,1.35,153.3,143.58,0.82,2.88,30.4,0,3.51,3.51,45,44,249.3,14.5,-3,D,341,3,21.98,2,2.08,180,146.56,-80.13731395,25.91201891,0,0,1,N,1.155303,62,62,11,118,118,141.3067,0,9999.99,3.51,3.637,2,9,26.8,0,26.79999924,49.72,1554.26567,12/16/21,14:19:50,26.08,72.31,49.72,1.214,8.07,-63,-2.5,-2.8,-3186,64.8,3.97,12.8,
25.91217497,-80.13742946,44:13.0,12/16/21,5,2.29,148.69,-7.142358562,1.35,154.9,145.11,0.76,2.81,30.4,0,3.5,3.5,45,44,249.2,14.5,-3,D,342.9,3,20.847,2,2.08,180,146.35,-80.13731395,25.91201891,0,0,1,N,1.169876,62,62,11,111,111,141.2044,0,9999.99,3.51,3.637,2,9,26.8,0,26.79999924,49.72,1554.26567,12/16/21,14:19:50,26.08,72.31,49.72,1.214,8.07,-63,-2.5,-2.8,-3186,64.8,3.97,12.8,
25.91216732,-80.13742509,44:14.0,12/16/21,5,2.013,149.27,-7.142358562,1.35,154.9,145.11,1.01,1.49,30.4,0,3.47,3.48,45,44,249.2,14.5,-3,D,342.9,3,19.897,2,2.05,180,146.04,-80.13731395,25.91201891,0,0,1,N,1.220951,63,63,11,111,111,140.8466,0,9999.99,3.48,3.607,2,9,26.8,0,26.79999924,49.72,1554.26582,12/16/21,14:19:51,26.08,72.31,49.72,1.189,8.06,-62.7,-2,-1.1,-1249,64.9,3.97,12.7,
25.91215805,-80.13741956,44:15.0,12/16/21,5,2.176,150.56,-7.142358562,1.35,153.4,143.67,0.37,3.2,30.4,0,3.46,3.46,45,44,249.2,14.5,-3,D,342.9,3,18.734,2,2.08,180,145.68,-80.13731395,25.91201891,0,0,1,N,1.271347,59,59,11,114,114,140.4943,0,9999.99,3.46,3.587,2,9,26.8,0,26.79999924,49.73,1554.27671,12/16/21,14:19:53,26.08,72.32,49.73,1.232,8.07,-63.1,-2.3,0.5,-3085,65.2,3.99,12.8,
25.91214912,-80.13741379,44:16.0,12/16/21,5,2.063,149.76,-7.142358562,1.35,154.3,144.53,0.35,2.75,30.4,0,3.5,3.5,45,44,249.2,14.5,-3,D,342.9,3,17.588,2,2.1,180,145.41,-80.13731395,25.91201891,0,0,1,N,1.276883,59,59,11,111,111,140.4556,0,9999.99,3.51,3.637,2,9,26.8,0,26.79999924,49.73,1554.27671,12/16/21,14:19:53,26.08,72.32,49.73,1.232,8.07,-63.1,-2.3,0.5,-3085,65.2,3.99,12.8,
25.91213974,-80.13740847,44:17.0,12/16/21,5,2.101,151.17,-7.142358562,1.35,153.9,144.15,0.6,3.62,30.3,0,3.53,3.53,45,44,249.2,14.5,-3,D,338.6,3,16.429,2,2.08,180,144.87,-80.13731395,25.91201891,0,0,1,N,1.346025,61,61,11,110,110,139.9734,0,9999.99,3.53,3.657,2,9,26.8,0,26.79999924,49.72,1554.26567,12/16/21,14:19:54,26.08,72.3,49.72,1.188,8.07,-63,-3.1,-7.4,-3486,65.3,4,12.7,
25.9121316,-80.13740353,44:18.0,12/16/21,5,2.058,150.32,-7.142358562,1.35,152.7,143.01,0.82,3.43,30.3,0,3.52,3.53,45,44,249.2,14.5,-3,D,338.6,3,15.405,2,2.07,180,144.44,-80.13731395,25.91201891,0,0,1,N,1.379344,62,62,11,114,114,139.7415,0,9999.99,3.53,3.657,2,9,26.8,0,26.79999924,49.74,1554.28741,12/16/21,14:19:56,26.06,72.33,49.74,1.308,8.06,-62.8,-3.3,-2.3,-2790,65.6,4.01,12.7,
25.9121241,-80.13739866,44:19.0,12/16/21,5,1.878,148.75,-7.142358562,1.35,153.5,143.77,0.65,3.03,30.3,0,3.53,3.54,45,44,249.2,14.5,-3,D,338.6,3,14.442,2,2.1,180,144.08,-80.13731395,25.91201891,0,0,1,N,1.383294,61,61,11,111,111,139.7142,0,9999.99,3.54,3.667,2,9,26.8,0,26.79999924,49.74,1554.28741,12/16/21,14:19:56,26.06,72.33,49.74,1.308,8.06,-62.8,-3.3,-2.3,-2790,65.6,4.01,12.7,
25.91211605,-80.13739269,44:20.0,12/16/21,5,1.962,148.39,-7.142358562,1.35,153.4,143.67,0.6,2.03,30.3,0,3.55,3.56,45,44,249.2,14.5,-3,D,338.9,3,13.368,2,2.15,180,143.9,-80.13731395,25.91201891,0,0,1,N,1.325163,60,60,11,113,113,140.1187,0,9999.99,3.56,3.687,2,9,26.8,0,26.79999924,49.73,1554.27661,12/16/21,14:19:57,26.06,72.32,49.73,1.237,8.07,-63.2,-2.7,-1.5,-2287,65.7,4.02,12.6,
25.91210773,-80.13738655,44:21.0,12/16/21,5,2.142,147.56,-7.142358562,1.35,154.1,144.34,0.27,1.47,30.3,0,3.55,3.55,45,44,249.2,14.5,-3,D,338.9,3,12.259,2,2.11,180,143.68,-80.13731395,25.91201891,0,0,1,N,1.261858,59,59,11,112,112,140.5607,0,9999.99,3.55,3.677,2,9,26.8,0,26.79999924,49.7,1554.24452,12/16/21,14:19:58,26.06,72.29,49.7,1.237,8.07,-63.5,-2,1.8,-1962,65.8,4.03,12.8,
25.91209946,-80.13738026,44:22.0,12/16/21,5,2.032,147.57,-7.142358562,1.35,152.5,142.82,0.62,2.04,30.4,0,3.57,3.57,45,44,249.2,14.5,-3,D,338.9,3,11.146,2,2.08,180,143.48,-80.13731395,25.91201891,0,0,1,N,1.192748,61,61,11,120,120,141.0443,0,9999.99,3.57,3.697,2,9,26.8,0,26.79999924,49.72,1554.26568,12/16/21,14:20:00,26.05,72.31,49.72,1.223,8.07,-63.3,-2.4,0,-2202,66,4.04,12.6,
25.9120911,-80.13737411,44:23.0,12/16/21,5,2.077,147.71,-7.142358562,1.35,152.6,142.91,0.51,2.16,30.4,0,3.59,3.59,45,44,249.2,14.5,-3,D,338.9,3,10.032,2,2.11,180,143.14,-80.13731395,25.91201891,0,0,1,N,1.133811,59,59,11,123,123,141.4574,0,9999.99,3.59,3.717,2,9,26.8,0,26.79999924,49.72,1554.26568,12/16/21,14:20:00,26.05,72.31,49.72,1.223,8.07,-63.3,-2.4,0,-2202,66,4.04,12.6,
25.91208377,-80.13736899,44:24.0,12/16/21,5,2.005,148.25,-7.142358562,1.35,153.1,143.39,0.55,2.52,30.4,0,3.58,3.58,45,44,249.1,14.5,-3,D,337.3,3,9.074,2,2.13,180,142.65,-80.13731395,25.91201891,0,0,1,N,1.102501,60,60,11,120,120,141.6778,0,9999.99,3.58,3.707,2,9,26.8,0,26.79999924,49.69,1554.23355,12/16/21,14:20:01,26.04,72.26,49.69,1.199,8.07,-63.4,-3.2,-4.6,-2068,66.1,4.05,12.7,
25.91207501,-80.13736333,44:25.0,12/16/21,5,2.069,148.34,-7.142358562,1.35,153.7,143.96,0.78,1.4,30.4,0,3.52,3.52,45,44,249.1,14.5,-3,D,337.3,3,7.957,2,2.16,180,141.63,-80.13731395,25.91201891,0,0,1,N,1.104866,62,62,11,118,118,141.6608,0,9999.99,3.53,3.657,2,9,26.8,0,26.79999924,49.72,1554.26567,12/16/21,14:20:03,26.03,72.31,49.72,1.188,8.07,-63.3,-3.6,-0.8,-3245,66.3,4.06,12.8,
25.91206651,-80.13735804,44:26.0,12/16/21,5,2.105,149.34,-7.142358562,1.35,152.9,143.2,0.96,3.07,30.5,0,3.59,3.6,45,44,249.1,14.5,-3,D,337.3,3,6.89,2,2.13,180,140.2,-80.13731395,25.91201891,0,0,1,N,1.131977,63,63,11,120,120,141.4704,0,9999.99,3.6,3.727,2,9,26.8,0,26.79999924,49.72,1554.26567,12/16/21,14:20:03,26.03,72.31,49.72,1.188,8.07,-63.3,-3.6,-0.8,-3245,66.3,4.06,12.8,
25.91205837,-80.13735278,44:27.0,12/16/21,5,2.03,149.05,-7.142358562,1.35,154.1,144.34,0.51,2.62,30.4,0,3.6,3.61,45,44,249.1,14.5,-3,D,340.2,3,5.86,2,2.11,179,138.48,-80.13731395,25.91201891,0,0,1,N,1.135643,60,60,11,115,115,141.4451,0,9999.99,3.61,3.737,2,9,26.8,0,26.79999924,49.72,1554.26577,12/16/21,14:20:04,26.03,72.31,49.72,1.248,8.07,-63.1,-2.9,-3.6,-2805,66.4,4.07,12.6,
25.91204907,-80.13734697,44:28.0,12/16/21,5,2.078,150.59,-7.142358562,1.35,154.9,145.11,0.1,4.9,30.4,0,3.61,3.61,45,44,249.1,14.5,-3,D,340.2,4,27.747,2,2.09,179,177.16,-80.13733322,25.91179984,0,0,1,N,3.633196,58,58,11,218,218,167.735,0,9999.99,3.61,3.737,2,9,26.8,0,26.79999924,49.75,1554.29782,12/16/21,14:20:06,26.02,72.34,49.75,1.222,8.08,-63.7,-3.3,-3.8,-3738,66.6,4.08,12.7,
25.91204029,-80.13734206,44:29.0,12/16/21,5,2.001,149.71,-7.142358562,1.35,162.4,152.33,0.35,0.97,30.4,0,3.63,3.63,45,44,249.1,14.5,-3,D,340.2,4,26.751,2,2.11,179,178.11,-80.13733322,25.91179984,0,0,1,N,3.065201,59,59,11,193,193,168.845,0,9999.99,3.63,3.757,2,9,26.8,0,26.79999924,49.75,1554.29782,12/16/21,14:20:06,26.02,72.34,49.75,1.222,8.08,-63.7,-3.3,-3.8,-3738,66.6,4.08,12.7,
25.91203206,-80.1373382,44:30.0,12/16/21,5,2.177,150.38,-7.142358562,1.35,166.9,156.71,1.89,-1.7,30.3,0,3.61,3.62,45,44,249.1,14.5,-3,D,340.2,4,25.827,2,2.03,179,178.9,-80.13733322,25.91179984,0,0,1,N,2.59704,68,68,11,179,179,169.6946,0,9999.99,3.63,3.757,2,9,26.8,0,26.79999924,49.73,1554.27638,12/16/21,14:20:07,26.03,72.32,49.73,1.219,8.07,-63.6,-3,-2.7,-3874,66.7,4.09,12.8,
25.91202365,-80.13733561,44:31.0,12/16/21,5,1.919,154.76,-7.142358562,1.35,173.8,163.5,1.48,1.04,30.4,0.01,3.63,3.63,45,42,249.1,14.6,-2.8,D,359.9,4,24.888,2,1.98,179,179.45,-80.13733322,25.91179984,0,0,1,N,2.244193,68,68,11,156,156,169.9142,0,9999.99,3.64,3.767,2,9,26.8,0,26.79999924,49.72,1554.26645,12/16/21,14:20:09,26.03,72.31,49.72,1.18,8.08,-63.6,-3,0.5,-2649,66.9,4.1,12.7,
25.91201453,-80.13733351,44:32.0,12/16/21,5,1.867,160.64,-7.142358562,1.35,176.6,166.28,1.03,3.29,30.3,0,3.64,3.64,45,42,249.1,14.6,-2.8,D,359.9,4,23.872,2,1.96,179,179.93,-80.13733322,25.91179984,0,0,1,N,1.947032,63,63,11,145,145,170.8413,0,9999.99,3.65,3.777,2,9,26.8,0,26.79999924,49.72,1554.26645,12/16/21,14:20:09,26.03,72.31,49.72,1.18,8.08,-63.6,-3,0.5,-2649,66.9,4.1,12.7,
25.91200497,-80.13733202,44:33.0,12/16/21,5,1.963,167.92,-7.142358562,1.35,178,167.68,0.95,2.25,30.3,0,3.56,3.56,45,42,249.1,14.6,-2.8,D,359.9,4,22.81,2,1.96,179,180.3,-80.13733322,25.91179984,0,0,1,N,1.717671,63,63,11,146,146,172.4059,0,9999.99,3.57,3.697,2,9,26.8,0,26.79999924,49.73,1554.27661,12/16/21,14:20:10,26.03,72.32,49.73,1.191,8.08,-63.7,-3.4,2,-2680,67,4.11,12.8,
25.91199642,-80.13733195,44:34.0,12/16/21,5,1.9,171.72,-7.142358562,1.35,181,170.68,0.48,4.22,30.4,0,3.54,3.55,45,42,249,14.5,-2.9,D,352,4,21.859,2,1.96,179,180.33,-80.13733322,25.91179984,0,0,1,N,1.630733,61,61,11,140,140,173.0028,0,9999.99,3.55,3.677,2,9,26.8,0,26.79999924,49.74,1554.28707,12/16/21,14:20:11,26.02,72.33,49.74,1.217,8.07,-63.4,-1.5,-2.3,-2800,67.1,4.11,12.9,
25.91198719,-80.13733174,44:35.0,12/16/21,5,2.219,172.86,-7.142358562,1.35,182.7,172.39,0.72,2.26,30.3,0,3.58,3.59,45,42,249,14.5,-2.9,D,352,4,20.833,2,1.99,179,180.41,-80.13733322,25.91179984,0,0,1,N,1.519705,60,60,11,133,133,173.768,0,9999.99,3.59,3.717,2,9,26.8,0,26.79999924,49.75,1554.29801,12/16/21,14:20:12,26.03,72.35,49.75,1.246,8.08,-63.7,-3.6,-1.7,-2796,67.3,4.12,12.7,
25.91197657,-80.13733154,44:36.1,12/16/21,5,2.044,175.56,-7.142358562,1.35,183.2,172.89,0.05,3.1,30.3,0,3.59,3.59,45,42,249,14.5,-2.9,D,352,4,19.652,2,2.04,179,180.49,-80.13733322,25.91179984,0,0,1,N,1.410266,57,57,11,134,134,174.5262,0,9999.99,3.59,3.717,2,9,26.8,0,26.79999924,49.73,1554.27646,12/16/21,14:20:14,26.02,72.32,49.73,1.201,8.08,-64.1,-3.5,-2.4,-1789,67.4,4.13,12.8,
25.91196692,-80.13733205,44:37.1,12/16/21,5,2.17,176.65,-7.142358562,1.35,186.1,175.82,0.74,2.54,30.4,0,3.57,3.57,45,42,249,14.5,-2.9,D,352,4,18.579,2,2.05,179,180.36,-80.13733322,25.91179984,0,0,1,N,1.369249,61,61,11,123,123,174.8118,0,9999.99,3.57,3.697,2,9,26.8,0,26.79999924,49.73,1554.27646,12/16/21,14:20:14,26.02,72.32,49.73,1.201,8.08,-64.1,-3.5,-2.4,-1789,67.4,4.13,12.8,
25.91195781,-80.13733272,44:38.1,12/16/21,5,1.941,179.66,-7.142358562,1.35,185.4,175.11,0.11,2.36,30.3,0,3.54,3.54,45,43,249,14.5,-2.9,D,346.3,4,17.565,2,2.02,179,180.16,-80.13733322,25.91179984,0,0,1,N,1.353914,58,58,11,126,126,174.9184,0,9999.99,3.55,3.677,2,9,26.8,0,26.79999924,49.73,1554.27635,12/16/21,14:20:15,26.01,72.32,49.73,1.24,8.08,-63.7,-3.5,1.5,-3319,67.4,4.13,12.7,
25.91194814,-80.13733379,44:39.1,12/16/21,5,2.011,182.25,-7.142358562,1.35,187,176.73,0.7,4.33,30.4,0,3.51,3.51,45,43,249,14.5,-2.9,D,346.3,4,16.49,2,2.05,179,179.8,-80.13733322,25.91179984,0,0,1,N,1.373728,61,61,11,119,119,174.7803,0,9999.99,3.51,3.637,2,9,26.8,0,26.79999924,49.72,1554.26566,12/16/21,14:20:16,26.01,72.31,49.72,1.205,8.08,-64,-3.2,-3.9,-2432,67.5,4.13,12.6,
25.91193937,-80.13733463,44:40.1,12/16/21,5,2.022,181.85,-7.142358562,1.35,185.4,175.11,0.43,3.03,30.4,0,3.5,3.5,45,43,249,14.5,-2.9,D,346.3,4,15.516,2,2.06,179,179.48,-80.13733322,25.91179984,0,0,1,N,1.386175,60,60,11,125,125,174.6937,0,9999.99,3.51,3.637,2,9,26.8,0,26.79999924,49.69,1554.23356,12/16/21,14:20:18,25.99,72.26,49.69,1.198,8.08,-63.7,-3.4,-3.9,-2001,67.7,4.15,12.7,
25.91193089,-80.13733563,44:41.1,12/16/21,5,2.077,182.42,-7.142358562,1.35,186.2,175.92,0.6,4.05,30.3,0,3.47,3.47,45,43,249,14.5,-2.9,D,348.7,4,14.574,2,2.07,179,179.05,-80.13733322,25.91179984,0,0,1,N,1.41221,61,61,11,123,123,174.5127,0,9999.99,3.48,3.607,2,9,26.8,0,26.79999924,49.69,1554.23356,12/16/21,14:20:18,25.99,72.26,49.69,1.198,8.08,-63.7,-3.4,-3.9,-2001,67.7,4.15,12.7,
25.91192024,-80.1373355,44:42.1,12/16/21,5,2.106,180.91,-7.142358562,1.35,187.1,176.83,0.56,2.89,30.4,0,3.46,3.46,45,43,249,14.5,-2.9,D,348.7,4,13.39,2,2.08,179,179.03,-80.13733322,25.91179984,0,0,1,N,1.301267,60,60,11,121,121,175.2851,0,9999.99,3.46,3.587,2,9,26.7,0,26.79999924,49.72,1554.26566,12/16/21,14:20:19,25.98,72.3,49.72,1.292,8.07,-63.6,-2.7,-2.5,-1030,67.7,4.15,12.8,
25.91190984,-80.13733694,44:43.1,12/16/21,5,2.057,183.08,-7.142358562,1.35,187.4,177.14,0.4,3.63,30.3,0,3.45,3.45,45,43,249,14.5,-2.9,D,348.7,4,12.237,2,2.08,179,178.26,-80.13733322,25.91179984,0,0,1,N,1.353261,59,59,11,118,118,174.9228,0,9999.99,3.46,3.587,2,9,26.8,0,26.70000076,49.72,1554.04947,12/16/21,14:20:21,25.96,72.31,49.72,1.228,8.08,-63.7,-3,-4.1,-3479,67.7,4.15,12.7,
25.91190051,-80.13733833,44:44.1,12/16/21,5,2.087,183.07,-7.142358562,1.35,187.3,177.04,0.57,3.76,30.3,0,3.42,3.42,45,43,249,14.5,-2.9,D,348.7,4,11.205,2,2.07,179,177.39,-80.13733322,25.91179984,0,0,1,N,1.41283,59,59,11,119,119,174.5086,0,9999.99,3.42,3.547,2,9,26.7,0,26.70000076,49.72,1554.04947,12/16/21,14:20:21,25.96,72.31,49.72,1.228,8.08,-63.7,-3,-4.1,-3479,67.7,4.15,12.7,
25.91189057,-80.13733871,44:45.1,12/16/21,5,2.088,182.44,-7.142358562,1.35,188.7,178.46,0.38,1.56,30.3,0,3.41,3.41,45,43,248.9,14.5,-2.9,D,347.9,4,10.103,2,2.05,179,176.88,-80.13733322,25.91179984,0,0,1,N,1.363228,60,60,11,114,114,174.8535,0,9999.99,3.41,3.537,2,9,26.7,0,26.70000076,49.71,1554.03882,12/16/21,14:20:22,25.95,72.29,49.71,1.257,8.08,-63.9,-2.2,-0.3,-2309,67.7,4.15,12.7,
25.91187874,-80.13733927,44:46.1,12/16/21,5,2.641,181.44,-7.142358562,1.35,188.5,178.26,0.18,2.87,30.3,0,3.35,3.35,45,43,248.9,14.5,-2.9,D,347.9,4,8.794,2,2.06,179,176.06,-80.13733322,25.91179984,0,0,1,N,1.310318,58,58,11,115,115,175.2222,0,9999.99,3.35,3.477,2,9,26.7,0,26.70000076,49.68,1554.00662,12/16/21,14:20:24,25.91,72.25,49.68,1.285,8.08,-64,-4.1,-2.2,-6726,67.8,4.16,12.6,
25.91186869,-80.13734074,44:47.1,12/16/21,5,2.04,184.35,-7.142358562,1.35,189.2,178.97,0.55,2.2,30.3,0,3.32,3.32,45,43,248.9,14.5,-2.9,D,347.9,4,7.692,2,2.06,179,174.39,-80.13733322,25.91179984,0,0,1,N,1.368087,60,60,11,110,110,174.8195,0,9999.99,3.33,3.457,2,9,26.7,0,26.70000076,49.68,1554.00662,12/16/21,14:20:24,25.91,72.25,49.68,1.285,8.08,-64,-4.1,-2.2,-6726,67.8,4.16,12.6,
25.91185914,-80.13734142,44:48.1,12/16/21,5,1.996,184.07,-7.142358562,1.35,188.8,178.56,0.89,3.23,30.3,0,3.3,3.31,45,43,248.9,14.5,-2.9,D,347.9,4,6.645,2,2.08,179,172.91,-80.13733322,25.91179984,0,0,1,N,1.352289,62,62,11,112,112,174.9296,0,9999.99,3.31,3.437,2,9,26.7,0,26.70000076,49.68,1554.00687,12/16/21,14:20:25,25.9,72.26,49.68,1.213,8.08,-64,-2.4,0,-3025,67.8,4.16,12.8,
25.91184999,-80.13734276,44:49.1,12/16/21,5,2.154,184.03,-7.142358562,1.35,188.4,178.15,0.57,1.81,30.3,0,3.28,3.28,45,43,248.9,14.5,-2.9,D,345.3,4,5.657,2,2.04,179,170.29,-80.13733322,25.91179984,0,0,1,N,1.405163,60,60,11,113,113,174.5623,0,9999.99,3.28,3.407,2,9,26.7,0,26.70000076,49.7,1554.0282,12/16/21,14:20:27,25.89,72.27,49.7,1.2,8.08,-64.1,-3.7,-1.6,-4112,67.8,4.16,12.7,
25.91183823,-80.13734387,44:50.1,12/16/21,5,2.196,185.15,-7.142358562,1.35,189.3,179.07,0.51,3.36,30.3,0,3.25,3.25,45,43,248.9,14.5,-2.9,D,345.3,4,4.401,2,2.05,179,165.99,-80.13733322,25.91179984,0,0,1,N,1.410325,60,60,11,109,109,174.5268,0,9999.99,3.26,3.387,2,9,26.7,0,26.70000076,49.7,1554.0282,12/16/21,14:20:27,25.89,72.27,49.7,1.2,8.08,-64.1,-3.7,-1.6,-4112,67.8,4.16,12.7,
25.91182854,-80.13734517,44:51.1,12/16/21,5,2.103,185.23,-7.142358562,1.35,190.2,179.99,0.8,6.6,30.4,0,3.23,3.23,45,43,248.9,14.5,-2.9,D,345.3,5,25.926,2,2.05,179,197.08,-80.13742131,25.91160567,0,0,1,N,2.366,62,62,11,169,169,190.3691,0,9999.99,3.24,3.367,2,9,26.7,0,26.70000076,49.69,1554.0173,12/16/21,14:20:28,25.88,72.26,49.69,1.209,8.08,-64.1,-2.4,-0.5,-3246,67.8,4.17,12.5,
25.9118191,-80.13734669,44:52.1,12/16/21,5,1.957,185.35,-7.142358562,1.35,192.2,182.03,0.47,2.96,30.4,0,3.22,3.22,45,43,248.9,14.5,-2.9,D,347.1,5,24.878,2,2.03,179,197.46,-80.13742131,25.91160567,0,0,1,N,2.109159,60,60,11,160,160,190.3537,0,9999.99,3.22,3.347,2,9,26.7,0,26.70000076,49.71,1554.03875,12/16/21,14:20:30,25.85,72.29,49.71,1.206,8.09,-64.6,-3.5,1.9,-1188,68,4.18,12.7,
25.91181096,-80.13734841,44:53.2,12/16/21,5,1.931,185,-7.142358562,1.35,196,185.92,0.56,3.83,30.4,0,3.18,3.18,45,43,248.9,14.5,-2.9,D,347.1,5,23.963,2,2.05,179,197.71,-80.13742131,25.91160567,0,0,1,N,1.908438,62,62,11,145,145,190.075,0,9999.99,3.19,3.317,2,9,26.7,0,26.70000076,49.71,1554.03875,12/16/21,14:20:30,25.85,72.29,49.71,1.206,8.09,-64.6,-3.5,1.9,-1188,68,4.18,12.7,
25.9118014,-80.13735071,44:54.2,12/16/21,5,1.969,187.16,-7.142358562,1.35,197.2,187.16,0.61,1.9,30.4,0,3.14,3.14,45,43,248.9,14.5,-2.9,D,347.1,5,22.882,2,2.04,179,197.98,-80.13742131,25.91160567,0,0,1,N,1.720129,61,61,11,139,139,190.067,0,9999.99,3.15,3.277,2,9,26.7,0,26.70000076,49.71,1554.03886,12/16/21,14:20:31,25.85,72.28,49.71,1.255,8.1,-64.7,-3.9,-2.5,-4738,68.1,4.18,12.7,
25.91179183,-80.13735272,44:55.2,12/16/21,5,2.031,191.37,-7.142358562,1.35,199.3,189.32,0.75,3.92,30.4,0,3.1,3.11,45,43,248.9,14.5,-2.9,D,347.1,5,21.807,2,2.03,179,198.34,-80.13742131,25.91160567,0,0,1,N,1.496758,61,61,11,136,136,191.6005,0,9999.99,3.11,3.237,2,9,26.7,0,26.70000076,49.7,1554.02804,12/16/21,14:20:33,25.84,72.27,49.7,1.191,8.1,-64.9,-1.6,0,-2972,68.2,4.19,12.8,
25.9117831,-80.137355,44:56.2,12/16/21,5,2.047,191.97,-7.142358562,1.35,200.6,190.66,0.22,3.33,30.4,0,3.06,3.06,45,43,248.8,14.5,-2.9,D,348.1,5,20.814,2,2.04,179,198.58,-80.13742131,25.91160567,0,0,1,N,1.339127,60,60,11,140,140,192.6965,0,9999.99,3.07,3.197,2,9,26.7,0,26.70000076,49.7,1554.02804,12/16/21,14:20:33,25.84,72.27,49.7,1.191,8.1,-64.9,-1.6,0,-2972,68.2,4.19,12.8,
25.91177379,-80.13735777,44:57.2,12/16/21,5,2.122,193.12,-7.142358562,1.35,201.1,191.18,1.01,4.8,30.4,0,3.01,3.01,45,43,248.8,14.5,-2.9,D,348.1,5,19.744,2,2.08,179,198.78,-80.13742131,25.91160567,0,0,1,N,1.202812,62,62,11,140,140,193.648,0,9999.99,3.01,3.137,2,9,26.7,0,26.70000076,49.7,1554.02802,12/16/21,14:20:34,25.84,72.27,49.7,1.216,8.1,-65,-2.2,-2.5,-3813,68.4,4.2,12.7,
25.91176544,-80.13736128,44:58.2,12/16/21,5,1.919,194.15,-7.142358562,1.35,204.4,194.6,0.3,1.4,30.4,0,2.96,2.96,45,43,248.8,14.5,-2.9,D,348.1,5,18.753,2,2.08,179,198.67,-80.13742131,25.91160567,0,0,1,N,1.174101,58,58,11,127,127,193.8499,0,9999.99,2.96,3.087,2,9,26.7,0,26.70000076,49.62,1553.94239,12/16/21,14:20:36,25.84,72.17,49.62,1.199,8.1,-65.2,-2.9,-5.2,-4055,68.8,4.23,12.6,
25.91175577,-80.1373655,44:59.2,12/16/21,5,2.032,196.11,-7.142358562,1.35,203.4,193.56,0.43,2.87,30.4,0,2.91,2.91,45,43,248.8,14.5,-2.9,D,350.1,5,17.599,2,2.08,179,198.49,-80.13742131,25.91160567,0,0,1,N,1.158666,59,59,11,130,130,193.9578,0,9999.99,2.92,3.047,2,9,26.7,0,26.70000076,49.62,1553.94239,12/16/21,14:20:36,25.84,72.17,49.62,1.199,8.1,-65.2,-2.9,-5.2,-4055,68.8,4.23,12.6,
25.91174678,-80.13736958,45:00.2,12/16/21,5,2.01,197.48,-7.142358562,1.35,203.7,193.88,0.35,4.51,30.4,0,2.82,2.82,45,43,248.8,14.5,-2.9,D,350.1,5,16.522,2,2.09,179,198.25,-80.13742131,25.91160567,0,0,1,N,1.15674,59,59,11,127,127,193.9712,0,9999.99,2.82,2.947,2,9,26.7,0,26.70000076,49.6,1553.92092,12/16/21,14:20:37,25.82,72.15,49.6,1.256,8.11,-65.3,-3.1,-4.2,-2524,68.9,4.24,12.8,
25.91173736,-80.13737346,45:01.3,12/16/21,5,2.098,198.03,-7.142358562,1.35,204.8,195.02,0.48,2.32,30.4,0,2.81,2.81,45,43,248.8,14.5,-2.9,D,350.1,5,15.406,2,2.09,179,198.1,-80.13742131,25.91160567,0,0,1,N,1.119759,60,60,11,124,124,194.2307,0,9999.99,2.81,2.937,2,9,26.7,0,26.70000076,49.59,1553.91021,12/16/21,14:20:39,25.78,72.13,49.59,1.218,8.12,-66.4,-2.5,0.8,-3209,69.3,4.26,12.8,
25.91172823,-80.13737794,45:02.3,12/16/21,5,2.061,199.98,-7.142358562,1.35,205.6,195.85,0.62,3.66,30.4,0,2.73,2.73,45,43,248.8,14.5,-2.9,D,350.1,5,14.301,2,2.03,179,197.65,-80.13742131,25.91160567,0,0,1,N,1.144541,61,61,11,120,120,194.057,0,9999.99,2.73,2.857,2,9,26.7,0,26.70000076,49.59,1553.91021,12/16/21,14:20:39,25.78,72.13,49.59,1.218,8.12,-66.4,-2.5,0.8,-3209,69.3,4.26,12.8,
25.91172027,-80.13738239,45:03.3,12/16/21,5,2.014,201.85,-7.142358562,1.35,206.1,196.37,0.33,2.49,30.4,0,2.66,2.66,45,43,248.8,14.5,-2.9,D,345.3,5,13.324,2,2.07,179,196.99,-80.13742131,25.91160567,0,0,1,N,1.220693,59,59,11,116,116,193.5232,0,9999.99,2.66,2.787,2,9,26.7,0,26.70000076,49.62,1553.94234,12/16/21,14:20:40,25.76,72.17,49.62,1.233,8.12,-66.4,-2.7,-1,-2143,69.5,4.28,12.7,
25.91171235,-80.13738641,45:04.3,12/16/21,5,2.042,202.56,-7.142358562,1.35,206.1,196.37,-0.1,4.57,30.4,0,2.56,2.56,45,43,248.8,14.5,-2.9,D,345.3,5,12.366,2,2.09,179,196.4,-80.13742131,25.91160567,0,0,1,N,1.262718,56,56,11,114,114,193.229,0,9999.99,2.56,2.687,2,9,26.7,0,26.70000076,49.69,1554.0174,12/16/21,14:20:42,25.78,72.27,49.69,1.257,8.14,-67.6,-2.7,-3.8,-3497,70,4.31,12.6,
25.91170262,-80.13739088,45:05.3,12/16/21,5,2.077,203.09,-7.142358562,1.35,204.2,194.39,0.61,5.11,30.4,0,2.3,2.3,45,43,248.8,14.5,-2.9,D,345.3,5,11.201,2,2.09,179,195.76,-80.13742131,25.91160567,0,0,1,N,1.276079,61,61,11,122,122,193.1358,0,9999.99,2.31,2.437,2,9,26.7,0,26.70000076,49.69,1554.0174,12/16/21,14:20:42,25.78,72.27,49.69,1.257,8.14,-67.6,-2.7,-3.8,-3497,70,4.31,12.6,
25.91169397,-80.13739557,45:06.3,12/16/21,5,2.101,204.31,-7.142358562,1.35,204.8,195.02,0.12,3.34,30.4,0,1.94,1.95,45,43,248.7,14.5,-2.9,D,346.4,5,10.151,2,2.05,179,194.69,-80.13742131,25.91160567,0,0,1,N,1.346563,58,58,11,118,118,192.6441,0,9999.99,1.95,2.077,2,9,26.7,0,26.70000076,49.78,1554.11369,12/16/21,14:20:43,25.8,72.37,49.78,1.224,8.15,-67.7,-2.2,-4.6,388,70.3,4.32,12.7,
25.91168477,-80.13739946,45:07.3,12/16/21,5,2.155,201.85,-7.142358562,1.35,204.8,195.02,0.39,2.97,30.4,0,1.53,1.53,45,43,248.7,14.5,-2.9,D,346.4,5,9.062,2,2.05,179,193.95,-80.13742131,25.91160567,0,0,1,N,1.316087,59,59,11,118,118,192.8564,0,9999.99,1.53,1.657,2,9,26.7,0,26.70000076,49.82,1554.15654,12/16/21,14:20:44,25.82,72.43,49.82,1.195,8.15,-68,-2.4,-1.3,-3993,70.8,4.35,12.7,
25.91167656,-80.13740364,45:08.3,12/16/21,5,2.111,202.52,-7.142358562,1.35,205.6,195.85,0.28,2.86,30.4,0,1.22,1.22,45,43,248.7,14.5,-2.9,D,346.4,5,8.079,2,2.03,179,192.64,-80.13742131,25.91160567,0,0,1,N,1.356452,59,59,11,114,114,192.575,0,9999.99,1.22,1.347,2,9,26.7,0,26.70000076,49.85,1554.18862,12/16/21,14:20:46,25.88,72.46,49.85,1.229,8.15,-68.3,-3,-3.8,-3307,71.5,4.39,12.7,
25.91166809,-80.13740801,45:09.3,12/16/21,5,2.105,202.44,-7.142358562,1.35,205.4,195.64,0.25,2.86,30.4,0,0.91,0.91,45,43,248.7,14.5,-2.9,D,346.4,5,7.067,2,2.07,179,190.85,-80.13742131,25.91160567,0,0,1,N,1.404744,60,60,11,115,115,192.2382,0,9999.99,0.91,1.037,2,9,26.7,0,26.70000076,49.85,1554.18862,12/16/21,14:20:46,25.88,72.46,49.85,1.229,8.15,-68.3,-3,-3.8,-3307,71.5,4.39,12.7,
25.91165728,-80.13741285,45:10.3,12/16/21,5,2.064,202.74,-7.142358562,1.35,205,195.23,0.45,2.93,30.4,0,0.74,0.74,45,43,248.7,14.5,-3,D,344.1,5,5.8,2,2.1,179,188.39,-80.13742131,25.91160567,0,0,1,N,1.397292,60,60,11,115,115,192.2911,0,9999.99,0.74,0.867,2,9,26.7,0,26.70000076,49.9,1554.2422,12/16/21,14:20:47,25.92,72.53,49.9,1.231,8.16,-68.6,-2.7,-3.5,1420,72,4.41,12.8,
25.91164928,-80.13741727,45:11.3,12/16/21,5,2.05,203.31,-7.142358562,1.35,203.9,194.08,0.28,4.68,30.4,0,0.61,0.62,45,43,248.7,14.5,-3,D,344.1,5,4.866,2,2.17,179,184.76,-80.13742131,25.91160567,0,0,1,N,1.469211,60,60,11,114,114,191.7928,0,9999.99,0.62,0.747,2,9,26.7,0,26.70000076,49.88,1554.22077,12/16/21,14:20:48,25.95,72.51,49.88,1.219,8.17,-68.9,-2.9,-4.9,-3770,72.4,4.44,12.6,
25.91164101,-80.13742215,45:12.3,12/16/21,5,2.098,204.73,-7.142358562,1.35,203.9,194.08,0.65,-0.15,30.4,0,0.65,0.65,45,43,248.7,14.5,-3,D,344.1,6,14.201,1,2.06,179,176.33,-80.13741305,25.91151356,0,0,1,N,0.2784902,61,61,11,53,53,176.8674,0,9999.99,0.65,0.777,2,9,26.7,0,26.70000076,50.06,1554.41358,12/16/21,14:20:50,26.01,72.73,50.06,1.219,8.18,-69.8,-3.4,-1.8,-1626,73.4,4.49,12.7,
25.91163091,-80.13742922,45:13.3,12/16/21,5,2.08,203.94,-7.142358562,1.35,199.4,189.42,0.37,2.73,30.4,0,0.63,0.63,45,44,248.7,14.5,-3,D,342.1,6,13.149,1,2.86,174,172.93,-80.13741305,25.91151356,0,0,1,N,0.462936,59,59,11,60,60,172.7266,0,9999.99,0.63,0.757,0,0,26.7,0,26.70000076,50.06,1554.41358,12/16/21,14:20:50,26.01,72.73,50.06,1.219,8.18,-69.8,-3.4,-1.8,-1626,73.4,4.49,12.7,
25.91162215,-80.13743337,45:14.3,12/16/21,5,2.003,202.92,-7.142358562,1.35,194.1,183.97,0.77,4.53,30.5,0,0.58,0.58,45,44,248.7,14.5,-3,D,342.1,6,12.245,1,2.56,170,170.45,-80.13741305,25.91151356,0,0,1,N,0.9849145,62,62,11,71,71,169.9047,0,9999.99,0.59,0.7169999,2,9,26.7,0,26.70000076,50.04,1554.39212,12/16/21,14:20:51,26.05,72.71,50.04,1.211,8.19,-70.2,-2.1,-5.5,-3336,73.9,4.52,12.7,
25.91161514,-80.13743405,45:15.3,12/16/21,5,1.843,199.66,-7.142358562,1.35,188.2,177.95,0.53,2.1,30.5,0,0.52,0.52,45,44,248.7,14.5,-3,D,342.1,6,11.489,1,2.29,165,169.46,-80.13741305,25.91151356,0,0,1,N,1.142181,60,60,11,88,88,168.485,0,9999.99,0.53,0.6569999,0,0,26.7,0,26.70000076,49.98,1554.328,12/16/21,14:20:53,26.09,72.64,49.98,1.169,8.21,-71.3,-2.5,-3.2,-2541,75,4.58,12.9,
25.91160895,-80.13743398,45:16.3,12/16/21,5,1.744,196.02,-7.142358562,1.35,186.1,175.82,0.79,1.99,30.4,0,0.53,0.53,45,44,248.7,14.5,-3,D,342.1,6,10.812,1,1.93,160,168.84,-80.13741305,25.91151356,0,0,1,N,1.213805,62,62,11,91,91,167.4041,0,9999.99,0.53,0.6569999,2,9,26.7,0,26.70000076,49.98,1554.328,12/16/21,14:20:53,26.09,72.64,49.98,1.169,8.21,-71.3,-2.5,-3.2,-2541,75,4.58,12.9,
25.91159979,-80.13743487,45:17.3,12/16/21,5,1.836,190.06,-7.142358562,1.35,181.5,171.18,1.55,0.84,30.4,0,0.47,0.48,45,29,248.6,14.6,-2,D,512.3,6,9.834,1,1.71,156,167.18,-80.13741305,25.91151356,0,0,1,N,1.385506,66,66,11,105,105,165.5611,0,9999.99,0.48,0.607,0,0,26.7,0,26.70000076,49.97,1554.31721,12/16/21,14:20:54,26.09,72.63,49.97,1.185,8.22,-72.2,-3,-8.5,-3572,75.6,4.62,12.7,
25.91159693,-80.13743421,45:18.3,12/16/21,5,1.482,190.1,-7.142358562,1.35,179.3,168.98,2.08,0.48,30.5,0,0.46,0.46,45,29,248.6,14.6,-2,D,512.3,6,9.509,1,0.79,157,167.14,-80.13741305,25.91151356,0,0,1,N,1.37612,69,69,11,114,114,165.6283,0,9999.99,0.47,0.597,2,9,26.7,0,26.70000076,49.88,1554.22103,12/16/21,14:20:56,25.98,72.51,49.88,1.134,8.23,-73,-2.4,-6,-3305,76.6,4.69,12.6,
25.91159103,-80.13743508,45:19.3,12/16/21,5,1.285,190.1,-7.142358562,1.35,177.5,167.18,1.09,-0.64,30.4,0.01,0.44,0.45,45,29,248.6,14.6,-2,D,512.3,6,8.892,1,0.8,157,165.65,-80.13741305,25.91151356,0,0,1,N,1.507561,64,64,11,118,118,164.7174,0,9999.99,0.46,0.587,0,0,26.7,0,26.70000076,49.88,1554.22103,12/16/21,14:20:56,25.98,72.51,49.88,1.134,8.23,-73,-2.4,-6,-3305,76.6,4.69,12.6,
25.91158445,-80.13743479,45:20.3,12/16/21,5,1.23,183.68,-7.142358562,1.35,176.2,165.89,0.93,-0.68,30.5,0,0.42,0.42,45,26,248.6,14.6,-1.8,D,563.9,6,8.177,1,1.04,157,164.58,-80.13741305,25.91151356,0,0,1,N,1.540001,63,63,11,121,121,164.4921,0,9999.99,0.43,0.557,0,0,26.7,0,26.70000076,49.97,1554.31762,12/16/21,14:20:57,25.88,72.62,49.97,1.136,8.24,-73.3,-2,3.1,-5605,77.3,4.74,12.8,
25.91157757,-80.13743489,45:21.3,12/16/21,5,1.278,179.16,-7.142358562,1.35,176.4,166.09,1.2,-1.01,30.5,0,0.39,0.39,45,26,248.6,14.6,-1.8,D,563.9,6,7.445,1,1.16,157,162.94,-80.13741305,25.91151356,0,0,1,N,1.60628,64,64,11,119,119,164.0353,0,9999.99,0.4,0.527,0,0,26.7,0,26.70000076,50.03,1554.38146,12/16/21,14:20:58,25.82,72.7,50.03,1.167,8.25,-73.7,-2.5,-4.5,-1895,78,4.78,12.7,
