Latitude,Longitude,Time,Date,Number of Sats,GPS Speed (Kn),GPS True Heading,GPS Magnetic Variation,HDOP,C Magnetic Heading,C True Heading,Pitch Angle,Roll Angle,C Inside Temp (c),DFS Depth (m),DTB Height (m),Total Water Column (m),Batt Percent,Power Watts,Watt-Hours,Batt Volts,Batt Ampers,Batt State,Time to Empty,Current Step,Dist To Next (m),Next Speed (kn),Vehicle Speed (kn),Motor Speed CMD,Next Heading,Next Long,Next Lat,Next Depth (m),Depth Goal (m),Vehicle State,Error State,Distance to Track (m),Fin Pitch R,Fin Pitch L,Pitch Goal,Fin Yaw T,Fin Yaw B,Yaw Goal,Fin Roll,DVL-Depth (m),DVL -Altitude (m),DVL -Water Column (m),DVL-FixType,DVL-FixQuality,DVL-Temperature,Conductivity (mmhos/cm),Temperature (c),Salinity (ppt),Sound Speed (m/s),Date m/d/y   ,Time hh:mm:ss,Temp C,SpCond mS/cm,Sal ppt,Depth feet,pH,pH mV,Turbid+ NTU,Chl ug/L,BGA-PC cells/mL,ODOsat %,ODO mg/L,Battery volts,ROSEM Command Type
25.88099467,-80.14692017,56:21.4,10/21/21,9,0.127,313.91,-7.117706431,0.93,183.2,172.92,1.43,0.57,36.1,0.04,32.33,32.36,93,22,511.7,16.2,-1.3,D,1548.4,0,358.727,1,0,128,43.12,-80.14446913,25.88334941,0,0,1,N,343.232,66,66,11,5,5,53.27574,0,9999.99,32.34,32.467,2,9,32.8,0,32.90000153,48.43,1564.95696,10/21/21,10:32:34,26.77,70.7,48.43,1.44,7.94,-55.6,-5.5,77.8,127766,90,5.49,12.9,
25.8809965,-80.1469225,56:22.4,10/21/21,10,0.528,313.91,-7.117706431,0.87,189.8,179.6,1.49,1.82,36.1,0.04,3.47,3.51,93,22,511.7,16.2,-1.3,D,1548.4,0,358.738,1,0,128,43.17,-80.14446913,25.88334941,0,0,1,N,343.1523,64,64,11,5,5,53.34294,0,9999.99,3.48,3.607,2,9,32.8,0,32.90000153,48.43,1564.95696,10/21/21,10:32:34,26.77,70.7,48.43,1.44,7.94,-55.6,-5.5,77.8,127766,90,5.49,12.9,
25.88100199,-80.14692828,56:23.4,10/21/21,10,1.222,313.91,-7.117706431,0.87,188,177.77,1.3,-1.95,36.1,0.03,3.47,3.5,93,22,511.7,16.2,-1.4,D,1519.7,0,358.689,1,0.44,160,43.3,-80.14446913,25.88334941,0,0,1,N,343.1523,68,68,11,5,5,43.30048,0,9999.99,3.48,3.607,2,9,32.7,0,32.79999924,48.64,1564.99293,10/21/21,10:32:36,26.73,70.96,48.64,1.35,7.94,-55.6,-5.2,199.7,103853,90.2,5.5,12.7,
25.88100313,-80.14693042,56:24.4,10/21/21,10,0.668,313.91,-7.117706431,0.87,190.7,180.52,1.33,1.42,36.1,0.01,3.58,3.59,93,22,511.7,16.2,-1.4,D,1519.7,0,358.744,1,0.47,160,43.34,-80.14446913,25.88334941,0,0,1,N,343.1523,70,70,11,5,5,43.33882,0,9999.99,3.61,3.737,2,9,32.7,0,32.79999924,48.64,1564.99293,10/21/21,10:32:36,26.73,70.96,48.64,1.35,7.94,-55.6,-5.2,199.7,103853,90.2,5.5,12.7,
25.88100339,-80.14693367,56:25.4,10/21/21,10,0.77,313.91,-7.117706431,0.87,187.2,176.96,2.56,-3.28,36.1,0.01,3.58,3.59,93,22,511.7,16.2,-1.4,D,1519.7,0,358.946,1,0.41,160,43.38,-80.14446913,25.88334941,0,0,1,N,343.1523,72,72,11,5,5,43.38172,0,9999.99,3.6,3.727,2,9,32.6,0,32.59999847,39.14,1554.8638,10/21/21,10:32:38,26.72,58.65,39.14,1.383,7.94,-55.5,-4.6,191.3,157469,90.5,5.82,12.9,
25.88100052,-80.14693772,56:26.4,10/21/21,10,1.085,313.91,-7.117706431,0.87,179.9,169.6,2.75,-2.51,36.1,0.01,3.63,3.64,93,29,511.7,16.2,-1.7,D,1183.6,0,359.456,1,0.43,160,43.4,-80.14446913,25.88334941,0,0,1,N,343.1523,71,71,11,5,5,43.39571,0,9999.99,3.65,3.777,2,9,32.6,0,32.59999847,48.46,1564.4437,10/21/21,10:32:39,26.71,70.74,48.46,1.334,7.94,-55.4,-4.5,12.5,115704,90.6,5.53,13,
25.8809964,-80.1469371,56:27.4,10/21/21,10,0.971,313.91,-7.117706431,0.93,171.7,161.45,0.61,2.17,36,0.01,3.66,3.67,93,29,511.7,16.2,-1.7,D,1183.6,0,359.747,1,0.49,160,43.34,-80.14446913,25.88334941,0,0,1,N,343.1523,61,61,11,5,5,43.34063,0,9999.99,3.68,3.807,2,9,32.5,0,32.5,48.49,1564.29362,10/21/21,10:32:40,26.71,70.77,48.49,1.402,7.93,-55.4,-3,29.3,125809,90.5,5.52,12.8,
25.88099343,-80.14693806,56:28.5,10/21/21,10,0.836,313.91,-7.117706431,0.87,167.2,157.03,2.96,1.62,36.1,0.01,3.63,3.64,93,29,511.7,16.2,-1.7,D,1183.6,0,360.053,1,0.52,160,43.31,-80.14446913,25.88334941,0,0,1,N,343.1523,75,75,11,5,5,43.31688,0,9999.99,3.66,3.787,2,9,32.4,0,32.5,48.28,1564.07726,10/21/21,10:32:41,26.7,70.5,48.28,1.409,7.92,-54.3,-4.7,-3.5,53018,90.7,5.54,13.1,
25.88098848,-80.14693682,56:29.5,10/21/21,10,0.934,313.91,-7.117706431,0.87,162.8,152.75,2.58,-2.33,36.1,0.01,3.63,3.64,93,29,511.7,16.2,-1.7,D,1183.6,0,360.369,1,0.69,160,43.24,-80.14446913,25.88334941,0,0,1,N,343.1523,72,72,11,5,5,43.24406,0,9999.99,3.64,3.767,2,9,32.4,0,32.40000153,48.39,1564.00819,10/21/21,10:32:42,26.7,70.65,48.39,1.316,7.91,-53.9,-2.5,10.9,84687,90.7,5.53,13,
25.88098425,-80.14693533,56:30.5,10/21/21,10,0.611,313.91,-7.117706431,0.87,160.1,150.13,1.48,2.24,36.1,0,3.6,3.6,93,30,511.6,16.2,-1.8,D,1154.6,0,360.609,1,0.72,160,43.17,-80.14446913,25.88334941,0,0,1,N,343.1523,66,66,11,5,5,43.17693,0,9999.99,3.61,3.737,2,9,32.3,0,32.29999924,48.42,1563.85569,10/21/21,10:32:43,26.69,70.69,48.42,1.362,7.91,-53.8,9.2,-5.2,16711,90.7,5.54,13,
25.88098007,-80.14693359,56:31.5,10/21/21,9,1.056,235.63,-7.117706431,0.93,152.7,143.03,1.35,-1.38,36.1,0,3.63,3.64,93,30,511.6,16.2,-1.8,D,1154.6,0,360.829,1,0.85,160,43.1,-80.14446913,25.88334941,0,0,1,N,343.1523,65,65,11,5,5,43.10926,0,9999.99,3.65,3.777,2,9,32.2,0,32.29999924,48.39,1563.82473,10/21/21,10:32:44,26.69,70.65,48.39,1.362,7.91,-53.8,-5.2,46.4,3323,90.7,5.54,12.8,
25.88097607,-80.14693028,56:32.5,10/21/21,10,1.051,187.93,-7.117706431,0.87,144,134.79,3.15,12.5,36.1,0,3.6,3.6,93,30,511.6,16.2,-1.8,D,1154.6,0,360.929,1,0.79,160,43.01,-80.14446913,25.88334941,0,0,1,N,343.1523,73,73,11,5,5,43.02061,0,9999.99,3.62,3.747,2,9,32.1,0,32.20000076,34.67,1549.51124,10/21/21,10:32:45,26.69,52.68,34.67,1.422,7.91,-53.6,-1.3,18.6,194246,90.9,5.99,12.9,
25.8809728,-80.14692691,56:33.5,10/21/21,11,0.86,168.64,-7.117706431,0.83,141.7,132.63,2.43,-1.11,36.1,0.01,3.52,3.52,93,30,511.6,16.2,-1.8,D,1154.6,0,360.964,1,0.84,160,42.94,-80.14446913,25.88334941,0,0,1,N,0.1533501,72,72,11,5,5,41.88063,0,9999.99,3.54,3.666258,2,9,32.1,0,32.09999847,48.31,1563.37502,10/21/21,10:32:46,26.69,70.55,48.31,1.311,7.9,-53.6,-3.1,35.4,149258,91,5.56,12.9,
25.88096919,-80.14692369,56:34.5,10/21/21,11,0.981,165.21,-7.117706431,0.83,136.8,128.04,2.63,-0.52,36.1,0,3.49,3.49,93,29,511.6,16.2,-1.8,D,1176.3,0,361.039,1,0.88,160,42.85,-80.14446913,25.88334941,0,0,1,N,0.6599532,73,73,11,5,5,38.37585,0,9999.99,3.51,3.637,2,9,32,0,32.09999847,48.28,1563.3442,10/21/21,10:32:47,26.69,70.51,48.28,1.336,7.9,-53.6,-4,10.2,159822,91.2,5.57,13,
25.88096595,-80.14692282,56:35.5,10/21/21,11,0.823,156.31,-7.117706431,0.83,131.2,122.82,1.53,2.49,36.1,0,3.47,3.47,93,29,511.6,16.2,-1.8,D,1176.3,0,361.244,1,0.86,160,42.81,-80.14446913,25.88334941,0,0,1,N,0.9773832,67,67,11,5,5,36.47923,0,9999.99,3.49,3.617,2,9,31.9,0,31.89999962,48.17,1562.86039,10/21/21,10:32:48,26.69,70.36,48.17,1.307,7.91,-53.7,-5,-2.7,137963,91.2,5.57,12.8,
25.88096242,-80.14691952,56:36.5,10/21/21,11,1.296,139,-7.117706431,0.83,127.7,119.58,3.71,0.2,36.1,0,3.52,3.52,93,29,511.6,16.2,-1.8,D,1176.3,0,361.309,1,0.94,160,42.72,-80.14446913,25.88334941,0,0,1,N,1.48209,79,79,11,5,5,33.32851,0,9999.99,3.55,3.677,2,9,31.9,0,31.89999962,48.17,1562.86032,10/21/21,10:32:49,26.69,70.36,48.17,1.335,7.9,-53.6,-3.8,79.4,204164,91.3,5.58,12.9,
25.88095905,-80.14691499,56:37.5,10/21/21,11,0.91,138.69,-7.117706431,0.83,121.6,113.93,1.31,-4.18,36.2,0.01,3.49,3.5,93,29,511.6,16.2,-1.8,D,1173.6,0,361.277,1,0.96,160,42.63,-80.14446913,25.88334941,0,0,1,N,2.062518,65,65,11,5,5,29.58994,0,9999.99,3.5,3.627,2,9,31.8,0,31.79999924,48.17,1562.67478,10/21/21,10:32:50,26.69,70.36,48.17,1.283,7.9,-53.6,-3.1,-5.9,166988,91.4,5.59,13,
25.88095561,-80.1469113,56:38.5,10/21/21,11,0.992,141.97,-7.117706431,0.83,112.8,105.79,1.44,6.04,36.2,0,3.46,3.46,93,29,511.6,16.2,-1.8,D,1173.6,0,361.308,1,0.97,160,42.55,-80.14446913,25.88334941,0,0,1,N,2.594564,66,66,11,5,5,26.43706,0,9999.99,3.48,3.607,2,9,31.8,0,31.79999924,48.14,1562.64376,10/21/21,10:32:51,26.69,70.33,48.14,1.384,7.9,-53.5,-5.3,-6.7,185499,91.4,5.59,13,
25.88095228,-80.14690673,56:39.6,10/21/21,11,1.054,136.3,-7.117706431,0.83,106.6,100.05,2.79,-0.16,36.2,0,3.49,3.49,93,29,511.6,16.2,-1.8,D,1173.6,0,361.272,1,0.93,160,42.45,-80.14446913,25.88334941,0,0,1,N,3.195184,74,74,11,5,5,22.74729,0,9999.99,3.5,3.627,2,9,31.7,0,31.70000076,48.06,1562.37421,10/21/21,10:32:52,26.7,70.22,48.06,1.311,7.91,-53.7,-5.1,0,239830,91.5,5.6,12.7,
25.88095104,-80.14690173,56:40.6,10/21/21,11,1.194,136.3,-7.117706431,0.83,96.9,91.01,2.37,-1.17,36.2,0.01,3.47,3.48,93,29,511.6,16.2,-1.8,D,1173.6,0,361.037,1,0.93,160,42.38,-80.14446913,25.88334941,0,0,1,N,3.652985,71,71,11,5,5,19.10201,0,9999.99,3.49,3.617,2,9,31.7,0,31.70000076,48.06,1562.37431,10/21/21,10:32:53,26.69,70.23,48.06,1.269,7.9,-53.6,-4.8,-3.5,197766,91.5,5.6,12.9,
25.88095126,-80.14689602,56:41.6,10/21/21,11,1.152,136.3,-7.117706431,0.83,94.3,88.58,2.2,2.31,36.2,0,3.45,3.46,93,29,511.6,16.2,-1.8,D,1171.7,0,360.634,1,0.91,160,42.32,-80.14446913,25.88334941,0,0,1,N,4.060005,70,70,11,5,5,16.05327,0,9999.99,3.47,3.597,2,9,31.6,0,31.70000076,48.03,1562.34349,10/21/21,10:32:54,26.69,70.19,48.03,1.307,7.91,-53.7,-5,-3.7,166682,91.6,5.61,12.9,
25.88095266,-80.14689055,56:42.6,10/21/21,11,0.93,136.3,-7.117706431,0.83,83.7,78.57,1.28,4.93,36.2,0,3.44,3.44,93,29,511.6,16.2,-1.8,D,1181.4,0,360.151,1,0.91,160,42.27,-80.14446913,25.88334941,0,0,1,N,4.369568,65,65,11,5,5,14.32914,0,9999.99,3.46,3.587,2,9,31.6,0,31.60000038,47.99,1562.11459,10/21/21,10:32:55,26.69,70.13,47.99,1.284,7.91,-53.7,-4,-7.5,200423,91.7,5.61,12.9,
25.88095463,-80.14688604,56:43.6,10/21/21,11,0.842,136.3,-7.117706431,0.83,79.2,74.28,1.59,-1.02,36.2,0,3.39,3.39,93,29,511.6,16.2,-1.8,D,1181.4,0,359.685,1,0.97,160,42.24,-80.14446913,25.88334941,0,0,1,N,4.552388,67,67,11,5,5,13.32738,0,9999.99,3.42,3.547,2,9,31.5,0,31.5,36.6,1550.14191,10/21/21,10:32:56,26.69,55.28,36.6,1.378,7.91,-53.8,-4.8,21.8,177079,91.8,5.99,12.8,
25.8809572,-80.14688057,56:44.6,10/21/21,11,1.079,136.3,-7.117706431,0.83,71.4,66.77,1.45,4.73,36.2,0,3.44,3.44,93,29,511.6,16.2,-1.8,D,1181.4,0,359.106,1,0.98,160,42.21,-80.14446913,25.88334941,0,0,1,N,4.762166,66,66,11,5,5,12.20831,0,9999.99,3.44,3.567,2,9,31.5,0,31.5,7.32,1519.9998,10/21/21,10:32:57,26.69,12.79,7.32,1.341,7.91,-53.8,-6,0.8,148953,91.8,7.06,12.9,
25.88095974,-80.14687786,56:45.6,10/21/21,11,0.934,136.3,-7.117706431,0.83,66.7,62.21,1.35,0.44,36.2,0,3.33,3.33,93,29,511.6,16.2,-1.8,D,1181.4,0,358.714,1,0.98,160,42.2,-80.14446913,25.88334941,0,0,1,N,4.774788,65,65,11,5,5,12.14244,0,9999.99,3.34,3.467,2,9,31.5,0,31.5,47.92,1561.85433,10/21/21,10:32:58,26.68,70.04,47.92,1.294,7.9,-53.6,-4.6,1.8,74119,91.7,5.62,13,
25.88096506,-80.14687042,56:46.9,10/21/21,11,0.885,136.3,-7.117706431,0.83,59.1,54.75,0.8,7.71,36.2,0.01,3.33,3.34,93,29,511.5,16.2,-1.8,D,1168.3,0,357.776,1,0.99,160,42.18,-80.14446913,25.88334941,0,0,1,N,4.829105,62,62,11,5,5,11.82323,0,9999.99,3.36,3.487,2,9,31.4,0,31.39999962,16.23,1528.93903,10/21/21,10:33:00,26.69,26.57,16.23,1.385,7.91,-53.7,-5.2,-0.4,183101,91.9,6.73,12.8,
25.88096645,-80.1468663,56:47.9,10/21/21,11,0.962,136.3,-7.117706431,0.83,50.2,45.92,1.15,-3.29,36.2,0.01,3.4,3.4,93,29,511.5,16.2,-1.8,D,1179.3,0,357.385,1,0.98,160,42.15,-80.14446913,25.88334941,0,0,1,N,4.913848,64,64,11,5,5,11.2061,0,9999.99,3.41,3.537,2,9,31.4,0,31.39999962,16.23,1528.93903,10/21/21,10:33:00,26.69,26.57,16.23,1.385,7.91,-53.7,-5.2,-0.4,183101,91.9,6.73,12.8,
25.8809702,-80.14686148,56:48.9,10/21/21,11,0.973,136.3,-7.117706431,0.83,44.9,40.62,1.87,5.7,36.3,0,3.47,3.47,93,29,511.5,16.2,-1.8,D,1179.3,0,356.753,1,1.07,160,42.13,-80.14446913,25.88334941,0,0,1,N,5.056072,68,68,11,6,6,10.47756,0,9999.99,3.48,3.607,2,9,31.3,0,31.29999924,47.84,1561.39429,10/21/21,10:33:01,26.69,69.95,47.84,1.308,7.91,-53.7,-4.9,0.5,3096,92,5.63,13.1,
25.88097512,-80.14685906,56:49.9,10/21/21,11,1.204,136.3,-7.117706431,0.83,39.2,34.88,1.79,-2.63,36.2,0,3.35,3.35,93,29,511.5,16.2,-1.8,D,1172.2,0,356.184,1,1.02,160,42.16,-80.14446913,25.88334941,0,0,1,N,5.078896,68,68,11,30,30,10.67685,0,9999.99,3.36,3.487,2,9,31.3,0,31.29999924,39.67,1552.92667,10/21/21,10:33:02,26.69,59.36,39.67,1.329,7.91,-53.7,-3.4,-8.6,5945,91.9,5.89,12.9,
25.88097502,-80.1468485,56:50.9,10/21/21,11,2.148,119.72,-7.117706431,0.83,26.6,22.09,0.31,1.17,36.2,0,3.34,3.34,93,29,511.5,16.2,-1.8,D,1172.2,0,355.484,1,1.08,160,42.04,-80.14446913,25.88334941,0,0,1,N,4.85738,59,59,11,77,77,9.631367,0,9999.99,3.36,3.487,2,9,31.3,0,31.29999924,47.78,1561.33184,10/21/21,10:33:03,26.69,69.87,47.78,1.406,7.91,-53.8,-6.2,-6,620,92,5.64,13,
25.88097759,-80.14684441,56:51.9,10/21/21,10,0.845,119.72,-7.117706431,0.89,18.9,14.23,1.77,-7.56,36.3,0,3.48,3.49,93,29,511.5,16.2,-1.8,D,1172.2,0,354.998,1,1.03,160,42.02,-80.14446913,25.88334941,0,0,1,N,5.597286,71,71,11,106,106,7.446112,0,9999.99,3.49,3.617,2,9,31.2,0,31.20000076,47.74,1561.10095,10/21/21,10:33:05,26.68,69.82,47.74,1.312,7.91,-53.8,-4.4,-1.4,-5225,92.1,5.65,13,
25.88098299,-80.14684324,56:52.9,10/21/21,9,1.028,119.72,-7.117706431,0.93,19.5,14.84,1.07,0.93,36.3,0,3.49,3.49,93,29,511.5,16.2,-1.8,D,1172.2,0,354.474,1,1.13,160,42.07,-80.14446913,25.88334941,0,0,1,N,5.63519,61,61,11,109,109,7.872969,0,9999.99,3.49,3.617,2,9,31.2,0,31.20000076,47.74,1561.10095,10/21/21,10:33:05,26.68,69.82,47.74,1.312,7.91,-53.8,-4.4,-1.4,-5225,92.1,5.65,13,
25.88098842,-80.1468422,56:53.9,10/21/21,9,1.182,119.72,-7.117706431,0.93,18,13.31,1.84,-6.38,36.3,0,3.42,3.43,93,30,511.5,16.2,-1.8,D,1148.1,0,353.956,1,1.17,160,42.12,-80.14446913,25.88334941,0,0,1,N,5.307145,68,68,11,112,112,9.532665,0,9999.99,3.44,3.567,2,9,31.2,0,31.20000076,47.72,1561.07973,10/21/21,10:33:06,26.68,69.79,47.72,1.422,7.91,-53.8,-4.9,-3.8,965,92.1,5.65,12.8,
25.88099551,-80.14684335,56:54.9,10/21/21,11,1.412,78.86,-7.117706431,0.89,21.9,17.29,0.81,-2.16,36.3,0,3.47,3.47,93,30,511.5,16.2,-1.8,D,1148.1,0,353.449,1,1.19,160,42.22,-80.14446913,25.88334941,0,0,1,N,4.955735,63,63,11,120,120,12.22078,0,9999.99,3.48,3.607,2,9,31.2,0,31.20000076,47.67,1561.02798,10/21/21,10:33:08,26.69,69.72,47.67,1.327,7.91,-53.8,-3,-2.8,-2784,92.2,5.66,12.8,
25.88100238,-80.14684219,56:55.9,10/21/21,10,1.478,78.86,-7.117706431,0.89,18.1,13.41,1.64,2.36,36.3,0.01,3.43,3.43,93,30,511.5,16.2,-1.8,D,1148.1,0,352.806,1,1.25,160,42.29,-80.14446913,25.88334941,0,0,1,N,4.30877,67,67,11,134,134,15.06405,0,9999.99,3.44,3.567,2,9,31.1,0,31.20000076,47.67,1561.02798,10/21/21,10:33:08,26.69,69.72,47.67,1.327,7.91,-53.8,-3,-2.8,-2784,92.2,5.66,12.8,
25.88100895,-80.14684117,56:56.9,10/21/21,10,1.349,42.49,-7.117706431,0.89,15.8,11.06,1.88,-7.15,36.3,0,3.45,3.45,93,29,511.5,16.2,-1.8,D,1166.9,0,352.196,1,1.25,160,42.36,-80.14446913,25.88334941,0,0,1,N,3.903769,68,68,11,153,153,17.53928,0,9999.99,3.46,3.587,2,9,31.1,0,31.10000038,47.64,1560.80683,10/21/21,10:33:09,26.69,69.69,47.64,1.293,7.91,-53.7,-3.8,-3.7,1523,92.2,5.66,12.9,
25.88101554,-80.14684147,56:57.9,10/21/21,10,1.153,42.49,-7.117706431,0.89,23.2,18.62,0.55,1.1,36.4,0,3.44,3.44,93,29,511.5,16.2,-1.8,D,1166.9,0,351.676,1,1.25,159,42.44,-80.14446913,25.88334941,0,0,1,N,3.492715,64,64,11,158,158,20.58473,0,9999.99,3.46,3.587,2,9,31.1,0,31.10000038,47.61,1560.77533,10/21/21,10:33:11,26.69,69.65,47.61,1.324,7.91,-53.8,-4.3,-5.6,-2038,92.3,5.66,12.9,
25.88102221,-80.1468415,56:58.9,10/21/21,11,1.393,17.34,-7.117706431,0.89,23.6,19.03,1.82,-1.51,36.4,0.01,3.5,3.51,93,29,511.5,16.2,-1.8,D,1166.9,0,351.131,1,1.25,159,42.53,-80.14446913,25.88334941,0,0,1,N,2.744937,68,68,11,147,147,24.02888,0,9999.99,3.5,3.627,2,9,31.1,0,31.10000038,47.61,1560.77533,10/21/21,10:33:11,26.69,69.65,47.61,1.324,7.91,-53.8,-4.3,-5.6,-2038,92.3,5.66,12.9,
25.88102818,-80.14684077,56:59.9,10/21/21,11,1.184,17.34,-7.117706431,0.83,27.6,23.11,0.67,1.11,36.4,0.01,3.5,3.51,93,29,511.5,16.2,-1.8,D,1166.9,0,350.592,1,1.24,159,42.59,-80.14446913,25.88334941,0,0,1,N,2.342514,61,61,11,141,141,26.64605,0,9999.99,3.51,3.637,2,9,31,0,31,47.56,1560.53314,10/21/21,10:33:13,26.69,69.59,47.56,1.385,7.91,-53.7,-6,-3.3,5912,92.4,5.67,13.1,
25.88103238,-80.14683942,57:00.9,10/21/21,11,0.88,17.34,-7.117706431,0.83,24.4,19.84,1.44,0.96,36.4,0,3.45,3.45,93,28,511.5,16.2,-1.7,D,1211.3,0,350.157,1,1.25,159,42.63,-80.14446913,25.88334941,0,0,1,N,2.123782,66,66,11,160,160,28.09973,0,9999.99,3.46,3.587,2,9,31,0,31,47.56,1560.53314,10/21/21,10:33:13,26.69,69.59,47.56,1.385,7.91,-53.7,-6,-3.3,5912,92.4,5.67,13.1,
25.88103802,-80.14683802,57:01.9,10/21/21,11,1.104,17.34,-7.117706431,0.83,22.2,17.6,0.72,-5.05,36.4,0,3.43,3.43,93,28,511.5,16.2,-1.7,D,1211.3,0,349.601,1,1.25,159,42.68,-80.14446913,25.88334941,0,0,1,N,1.79803,65,65,11,175,175,30.2997,0,9999.99,3.44,3.567,2,9,31,0,31,43.28,1556.08616,10/21/21,10:33:14,26.69,64.08,43.28,1.313,7.91,-53.8,-5,-6.2,-4146,92.4,5.81,12.9,
25.88104365,-80.14683718,57:03.0,10/21/21,11,1.315,15.33,-7.117706431,0.89,30.2,25.75,0.89,-3.57,36.4,0.01,3.42,3.42,93,28,511.5,16.2,-1.7,D,1211.3,0,349.084,1,1.23,158,42.74,-80.14446913,25.88334941,0,0,1,N,1.558225,62,62,11,155,155,32.80301,0,9999.99,3.42,3.547,2,9,31,0,31,47.5,1560.47028,10/21/21,10:33:16,26.69,69.51,47.5,1.357,7.9,-53.6,-4.4,-0.6,884,92.6,5.68,12.8,
25.88105044,-80.14683626,57:04.0,10/21/21,10,1.119,15.33,-7.117706431,0.89,31.2,26.77,1.96,-2.21,36.4,0.01,3.4,3.41,93,28,511.4,16.2,-1.7,D,1208.5,0,348.468,1,1.28,158,42.81,-80.14446913,25.88334941,0,0,1,N,0.9873895,69,69,11,164,164,35.93042,0,9999.99,3.41,3.537,2,9,30.9,0,30.89999962,47.48,1560.25825,10/21/21,10:33:17,26.69,69.49,47.48,1.295,7.9,-53.6,-5.5,-1.9,3012,92.6,5.68,12.9,
25.88105527,-80.14683374,57:05.0,10/21/21,11,1.207,15.33,-7.117706431,0.89,34.3,29.92,0.48,-2.91,36.4,0.01,3.39,3.4,93,28,511.4,16.2,-1.7,D,1208.5,0,347.902,1,1.21,158,42.84,-80.14446913,25.88334941,0,0,1,N,0.7969533,60,60,11,156,156,37.27758,0,9999.99,3.41,3.537,2,9,30.9,0,30.89999962,47.48,1560.25825,10/21/21,10:33:17,26.69,69.49,47.48,1.295,7.9,-53.6,-5.5,-1.9,3012,92.6,5.68,12.9,
25.88106143,-80.14683322,57:06.0,10/21/21,11,1.212,15.33,-7.117706431,0.83,35,30.63,-0.81,-1.27,36.4,0,3.37,3.38,93,28,511.4,16.2,-1.7,D,1208.5,0,347.365,1,1.25,158,42.91,-80.14446913,25.88334941,0,0,1,N,0.3663232,52,52,11,166,166,40.34473,0,9999.99,3.39,3.517,2,9,30.9,0,30.89999962,22.81,1534.67815,10/21/21,10:33:18,26.69,36.2,22.81,1.333,7.91,-53.7,38.4,-8.6,9463,92.5,6.52,12.9,
25.88106807,-80.14683369,57:07.0,10/21/21,11,1.499,6.09,-7.117706431,0.83,40.2,35.89,1.62,-6.8,36.4,0,3.36,3.37,93,28,511.4,16.2,-1.7,D,1208.5,0,346.856,1,1.24,157,43,-80.14446913,25.88334941,0,0,1,N,0.1726169,69,69,11,170,170,44.20242,0,9999.99,3.35,3.477,2,9,30.9,0,30.89999962,47.45,1560.22666,10/21/21,10:33:19,26.68,69.45,47.45,1.268,7.9,-53.6,-3.4,-7.3,1346,92.6,5.68,12.9,
25.88107402,-80.14683228,57:08.0,10/21/21,11,1.452,8.03,-7.117706431,0.85,40.1,35.79,0.38,1.76,36.4,0.01,3.32,3.32,93,28,511.4,16.2,-1.7,D,1200.3,0,346.276,1,1.2,157,43.06,-80.14446913,25.88334941,0,0,1,N,0.5251498,55,55,11,173,173,46.72212,0,9999.99,3.32,3.447,2,9,30.9,0,30.89999962,44.89,1557.56499,10/21/21,10:33:21,26.66,66.16,44.89,1.484,7.9,-53.6,-4.2,8.4,5095,92.7,5.77,12.9,
25.88107968,-80.14683115,57:09.0,10/21/21,11,1.08,8.03,-7.117706431,0.83,39.9,35.58,0.39,-3.22,36.5,0.01,3.29,3.29,93,28,511.4,16.2,-1.7,D,1200.3,0,345.739,1,1.17,157,43.11,-80.14446913,25.88334941,0,0,1,N,0.8690606,59,59,11,181,181,49.16618,0,9999.99,3.3,3.427,2,9,30.8,0,30.89999962,44.89,1557.56499,10/21/21,10:33:21,26.66,66.16,44.89,1.484,7.9,-53.6,-4.2,8.4,5095,92.7,5.77,12.9,
25.88108371,-80.14682987,57:10.0,10/21/21,11,0.914,8.03,-7.117706431,0.83,45.2,40.92,0.71,-0.01,36.4,0,3.44,3.44,93,27,511.4,16.2,-1.7,D,1243.7,0,345.325,1,1.22,157,43.15,-80.14446913,25.88334941,0,0,1,N,1.078718,67,67,11,177,177,50.64542,0,9999.99,3.44,3.567,2,9,30.8,0,30.79999924,47.39,1559.97181,10/21/21,10:33:22,26.67,69.37,47.39,1.266,7.9,-53.5,-3.2,0.5,-5005,92.6,5.69,12.9,
25.8810886,-80.14682726,57:11.1,10/21/21,11,1.293,8.03,-7.117706431,0.83,49.3,45.03,2.74,-4.63,36.5,0,3.5,3.5,93,27,511.4,16.2,-1.7,D,1243.7,0,344.75,1,1.19,157,43.18,-80.14446913,25.88334941,0,0,1,N,1.271689,73,73,11,155,155,51.99829,0,9999.99,3.5,3.627,2,9,30.8,0,30.79999924,47.38,1559.96129,10/21/21,10:33:24,26.67,69.35,47.38,1.467,7.9,-53.6,-2,1,3759,92.8,5.7,12.8,
25.88109477,-80.14682491,57:12.1,10/21/21,11,1.226,11.14,-7.117706431,0.83,54.4,50.11,-1.71,-0.42,36.4,0.01,3.48,3.49,93,27,511.4,16.2,-1.7,D,1243.7,0,344.089,1,1.12,157,43.23,-80.14446913,25.88334941,0,0,1,N,1.572512,47,47,11,143,143,54.08641,0,9999.99,3.51,3.637,2,9,30.8,0,30.79999924,47.38,1559.96129,10/21/21,10:33:24,26.67,69.35,47.38,1.467,7.9,-53.6,-2,1,3759,92.8,5.7,12.8,
25.88109889,-80.14682213,57:13.1,10/21/21,11,0.942,11.14,-7.117706431,0.83,55.1,50.8,2.73,-1.01,36.4,0,3.47,3.48,93,28,511.4,16.2,-1.7,D,1218.7,0,343.564,1,1.13,157,43.25,-80.14446913,25.88334941,0,0,1,N,1.68341,73,73,11,143,143,54.84946,0,9999.99,3.46,3.587,2,9,30.8,0,30.79999924,47.36,1559.94106,10/21/21,10:33:26,26.65,69.34,47.36,1.418,7.9,-53.6,-3.7,80.6,90706,92.8,5.7,12.9,
25.88110123,-80.14681756,57:14.1,10/21/21,11,0.869,11.14,-7.117706431,0.83,60.3,55.94,1.46,1.53,36.5,0,3.46,3.46,93,28,511.4,16.2,-1.7,D,1218.7,0,343.062,1,1.09,157,43.22,-80.14446913,25.88334941,0,0,1,N,1.532873,66,66,11,119,119,53.81288,0,9999.99,3.48,3.607,2,9,30.7,0,30.79999924,47.36,1559.94106,10/21/21,10:33:26,26.65,69.34,47.36,1.418,7.9,-53.6,-3.7,80.6,90706,92.8,5.7,12.9,
25.88110494,-80.14681324,57:15.1,10/21/21,11,1.224,11.14,-7.117706431,0.83,58.1,53.77,1.33,2.34,36.4,0,3.5,3.5,93,28,511.4,16.2,-1.7,D,1218.7,0,342.466,1,1.06,157,43.22,-80.14446913,25.88334941,0,0,1,N,1.49481,65,65,11,126,126,53.54957,0,9999.99,3.51,3.637,2,9,30.7,0,30.70000076,47.31,1559.69569,10/21/21,10:33:28,26.68,69.27,47.31,1.261,7.9,-53.5,-4.7,1.6,89815,93,5.71,12.8,
25.88110899,-80.14680907,57:16.1,10/21/21,11,1.284,11.14,-7.117706431,0.83,61.2,56.82,0.9,-3.6,36.4,0.01,3.49,3.5,93,28,511.4,16.2,-1.7,D,1218.7,0,341.851,1,1.1,157,43.22,-80.14446913,25.88334941,0,0,1,N,1.50422,65,65,11,115,115,53.61465,0,9999.99,3.5,3.627,2,9,30.7,0,30.70000076,47.31,1559.69569,10/21/21,10:33:28,26.68,69.27,47.31,1.261,7.9,-53.5,-4.7,1.6,89815,93,5.71,12.8,
25.88111194,-80.1468051,57:17.1,10/21/21,11,1.053,11.14,-7.117706431,0.83,61.2,56.82,-0.91,-1.01,36.4,0.01,3.44,3.45,93,27,511.4,16.2,-1.7,D,1237.8,0,341.34,1,1.07,157,43.21,-80.14446913,25.88334941,0,0,1,N,1.432457,56,56,11,119,119,53.11742,0,9999.99,3.45,3.577,2,9,30.7,0,30.70000076,47.27,1559.65499,10/21/21,10:33:30,26.68,69.21,47.27,1.295,7.9,-53.6,-4.1,3.6,133515,93,5.71,13,
25.88111597,-80.14680002,57:18.1,10/21/21,11,0.881,11.14,-7.117706431,0.83,59.8,55.44,3.66,-4.55,36.4,0.01,3.38,3.39,93,27,511.4,16.2,-1.7,D,1237.8,0,340.666,1,1.1,156,43.2,-80.14446913,25.88334941,0,0,1,N,1.368941,79,79,11,116,116,52.67621,0,9999.99,3.37,3.497,2,9,30.7,0,30.70000076,47.27,1559.65499,10/21/21,10:33:30,26.68,69.21,47.27,1.295,7.9,-53.6,-4.1,3.6,133515,93,5.71,13,
25.88111855,-80.14679572,57:19.1,10/21/21,11,1.141,11.14,-7.117706431,0.83,66.8,62.31,-0.24,0.12,36.4,0,3.48,3.49,93,28,511.3,16.2,-1.7,D,1233.5,0,340.162,1,1.04,156,43.18,-80.14446913,25.88334941,0,0,1,N,1.249769,52,52,11,88,88,51.84486,0,9999.99,3.52,3.647,2,9,30.7,0,30.70000076,22.84,1534.29053,10/21/21,10:33:32,26.69,36.24,22.84,1.25,7.9,-53.5,-4.2,0,121451,93.1,6.56,12.8,
25.8811219,-80.14679119,57:20.1,10/21/21,11,1.058,11.14,-7.117706431,0.83,65.8,61.33,2.02,2.97,36.4,0,3.46,3.46,93,28,511.3,16.2,-1.7,D,1233.5,0,339.581,1,1.12,156,43.16,-80.14446913,25.88334941,0,0,1,N,1.176087,69,69,11,87,87,51.32877,0,9999.99,3.46,3.587,2,9,30.7,0,30.70000076,22.84,1534.29053,10/21/21,10:33:32,26.69,36.24,22.84,1.25,7.9,-53.5,-4.2,0,121451,93.1,6.56,12.8,
25.88112531,-80.14678629,57:21.1,10/21/21,11,1.162,11.14,-7.117706431,0.83,63.6,59.18,1.22,1.92,36.4,0.01,3.48,3.49,93,28,511.3,16.2,-1.7,D,1233.5,0,338.968,1,1.13,156,43.15,-80.14446913,25.88334941,0,0,1,N,1.079363,64,64,11,93,93,50.64954,0,9999.99,3.5,3.627,2,9,30.7,0,30.70000076,47.23,1559.61212,10/21/21,10:33:33,26.69,69.16,47.23,1.283,7.91,-53.6,-4.9,43.7,60003,93,5.72,12.9,
25.88112776,-80.14678074,57:22.1,10/21/21,11,1.149,11.14,-7.117706431,0.83,60.8,56.43,1.67,-3.96,36.4,0.01,3.41,3.42,93,27,511.3,16.2,-1.6,D,1260.4,0,338.39,1,1.13,156,43.11,-80.14446913,25.88334941,0,0,1,N,0.8520017,67,67,11,97,97,49.0445,0,9999.99,3.42,3.547,2,9,30.6,0,30.60000038,47.2,1559.38803,10/21/21,10:33:35,26.69,69.13,47.2,1.315,7.91,-53.7,-3.6,27.7,151231,93.2,5.73,13,
25.88113061,-80.14677577,57:23.1,10/21/21,11,1.026,11.14,-7.117706431,0.83,56.7,52.38,0.72,-0.27,36.4,0.01,3.33,3.34,93,27,511.3,16.2,-1.6,D,1260.4,0,337.819,1,1.12,156,43.09,-80.14446913,25.88334941,0,0,1,N,0.7039144,63,63,11,99,99,47.99369,0,9999.99,3.35,3.477,2,9,30.6,0,30.60000038,47.2,1559.38803,10/21/21,10:33:35,26.69,69.13,47.2,1.315,7.91,-53.7,-3.6,27.7,151231,93.2,5.73,13,
25.88113366,-80.14677127,57:24.1,10/21/21,11,1.221,11.14,-7.117706431,0.83,60.7,56.33,1.16,2.77,36.4,0,3.44,3.45,93,27,511.3,16.2,-1.6,D,1260.4,0,337.264,1,1.09,156,43.07,-80.14446913,25.88334941,0,0,1,N,0.5995532,69,69,11,100,100,47.25129,0,9999.99,3.45,3.577,2,9,30.6,0,30.60000038,46.88,1559.05411,10/21/21,10:33:36,26.69,68.72,46.88,1.237,7.91,-53.8,-2.9,45,97376,93,5.73,12.9,
25.88113863,-80.14676613,57:25.1,10/21/21,11,1.372,11.14,-7.117706431,0.83,58.8,54.46,1.89,1.27,36.4,0.01,3.47,3.48,93,27,511.3,16.2,-1.6,D,1260.4,0,336.509,1,1.1,156,43.07,-80.14446913,25.88334941,0,0,1,N,0.6054934,68,68,11,98,98,47.2934,0,9999.99,3.48,3.607,2,9,30.6,0,30.60000038,47.15,1559.33562,10/21/21,10:33:38,26.68,69.07,47.15,1.347,7.91,-53.8,-4.7,8.1,108444,93.1,5.73,13,
25.88114158,-80.14676156,57:26.1,10/21/21,11,1.333,11.14,-7.117706431,0.83,58.8,54.46,-0.46,1.28,36.4,0.01,3.48,3.49,93,27,511.3,16.2,-1.6,D,1257.4,0,335.957,1,1.04,156,43.05,-80.14446913,25.88334941,0,0,1,N,0.4935619,50,50,11,92,92,46.49552,0,9999.99,3.5,3.627,2,9,30.6,0,30.60000038,47.15,1559.33562,10/21/21,10:33:38,26.68,69.07,47.15,1.347,7.91,-53.8,-4.7,8.1,108444,93.1,5.73,13,
25.88114644,-80.14675754,57:27.1,10/21/21,11,1.01,11.14,-7.117706431,0.83,55.7,51.39,1.19,-2.92,36.4,0.01,3.45,3.46,93,27,511.3,16.2,-1.6,D,1267.8,0,335.288,1,1.1,156,43.06,-80.14446913,25.88334941,0,0,1,N,0.5670605,64,64,11,110,110,47.01948,0,9999.99,3.45,3.577,2,9,30.6,0,30.60000038,7.24,1517.95469,10/21/21,10:33:39,26.68,12.66,7.24,1.263,7.91,-53.9,-4.9,3.6,62182,93.2,7.17,12.9,
25.8811498,-80.1467532,57:28.1,10/21/21,11,1.243,11.14,-7.117706431,0.83,56.1,51.79,2.34,-4.18,36.4,0,3.46,3.46,93,27,511.3,16.2,-1.6,D,1267.8,0,334.718,1,1.07,156,43.05,-80.14446913,25.88334941,0,0,1,N,0.5012532,71,71,11,106,106,46.55027,0,9999.99,3.47,3.597,2,9,30.6,0,30.60000038,47.15,1559.33555,10/21/21,10:33:40,26.67,69.06,47.15,1.306,7.91,-54,-3.4,-6.8,-5444,93.2,5.73,12.8,
25.88115265,-80.14674805,57:29.1,10/21/21,11,1.155,11.14,-7.117706431,0.83,60.7,56.33,0.39,0.96,36.4,0.01,3.32,3.32,93,27,511.3,16.2,-1.6,D,1267.8,0,334.135,1,1.11,156,43.02,-80.14446913,25.88334941,0,0,1,N,0.3432376,58,58,11,88,88,45.42167,0,9999.99,3.34,3.467,2,9,30.6,0,30.60000038,46.02,1558.15816,10/21/21,10:33:42,26.68,67.62,46.02,1.204,7.91,-54.1,-4,19.1,166946,93,5.76,13,
25.88115686,-80.14674597,57:30.1,10/21/21,11,0.997,11.14,-7.117706431,0.83,50.9,46.62,0.69,-3.35,36.5,0.01,3.34,3.34,93,27,511.3,16.2,-1.6,D,1267.8,0,333.651,1,1.13,156,43.05,-80.14446913,25.88334941,0,0,1,N,0.5002697,64,64,11,127,127,46.54301,0,9999.99,3.34,3.467,2,9,30.5,0,30.60000038,46.02,1558.15816,10/21/21,10:33:42,26.68,67.62,46.02,1.204,7.91,-54.1,-4,19.1,166946,93,5.76,13,
25.88116111,-80.14674058,57:31.1,10/21/21,11,1.345,11.14,-7.117706431,0.83,58.2,53.87,1.12,-6.11,36.4,0,3.47,3.48,93,27,511.3,16.2,-1.6,D,1277.7,0,332.937,1,1.1,156,43.04,-80.14446913,25.88334941,0,0,1,N,0.4313672,62,62,11,102,102,46.05119,0,9999.99,3.48,3.607,2,9,30.5,0,30.5,47.09,1559.07852,10/21/21,10:33:44,26.67,68.99,47.09,1.281,7.92,-54.3,-2.2,-4.7,54460,93.2,5.74,12.8,
25.88116386,-80.14673558,57:32.1,10/21/21,11,1.158,11.14,-7.117706431,0.83,50.2,45.92,0.06,1.81,36.4,0.01,3.39,3.4,93,27,511.3,16.2,-1.6,D,1277.7,0,332.372,1,1.14,156,43.01,-80.14446913,25.88334941,0,0,1,N,0.2712964,57,57,11,123,123,44.90699,0,9999.99,3.4,3.527,2,9,30.5,0,30.5,47.09,1559.07852,10/21/21,10:33:44,26.67,68.99,47.09,1.281,7.92,-54.3,-2.2,-4.7,54460,93.2,5.74,12.8,
25.88116682,-80.14673194,57:33.1,10/21/21,11,1.026,11.14,-7.117706431,0.83,48.8,44.53,1.03,-7,36.5,0.01,3.4,3.41,93,26,511.3,16.2,-1.6,D,1295.5,0,331.884,1,1.12,156,43.01,-80.14446913,25.88334941,0,0,1,N,0.2282133,67,67,11,126,126,44.59862,0,9999.99,3.4,3.527,2,9,30.5,0,30.5,47.08,1559.06861,10/21/21,10:33:46,26.67,68.97,47.08,1.363,7.91,-54.2,-1.7,-5.4,-11642,93.5,5.75,12.9,
25.88117087,-80.14672691,57:34.1,10/21/21,11,1.242,11.14,-7.117706431,0.83,56.1,51.79,1.77,0.72,36.5,0.01,3.37,3.38,93,26,511.3,16.2,-1.6,D,1295.5,0,331.211,1,1.1,156,43,-80.14446913,25.88334941,0,0,1,N,0.1696153,63,63,11,104,104,44.17916,0,9999.99,3.38,3.507,2,9,30.5,0,30.5,47.08,1559.06861,10/21/21,10:33:46,26.67,68.97,47.08,1.363,7.91,-54.2,-1.7,-5.4,-11642,93.5,5.75,12.9,
25.88117489,-80.1467227,57:35.1,10/21/21,11,1.118,11.14,-7.117706431,0.83,48.6,44.33,-1.05,-1.86,36.5,0.01,3.41,3.42,93,26,511.3,16.2,-1.6,D,1295.5,0,330.597,1,1.1,156,43,-80.14446913,25.88334941,0,0,1,N,0.1599443,51,51,11,126,126,44.10981,0,9999.99,3.43,3.557,2,9,30.5,0,30.5,47.04,1559.02707,10/21/21,10:33:48,26.68,68.93,47.04,1.191,7.92,-54.3,-2.3,-4.5,115372,93.2,5.74,12.8,
25.88117696,-80.14671791,57:36.1,10/21/21,11,1.133,11.14,-7.117706431,0.83,51.7,47.42,2.51,-7.34,36.5,0.01,3.41,3.42,93,28,511.2,16.2,-1.7,D,1221.8,0,330.102,1,1.11,156,42.96,-80.14446913,25.88334941,0,0,1,N,3.03E-02,72,72,11,108,108,42.74717,0,9999.99,3.4,3.527,2,9,30.5,0,30.5,47.05,1559.03717,10/21/21,10:33:49,26.67,68.94,47.05,1.468,7.92,-54.4,-2.3,-1.1,-50,93.3,5.74,13,
25.8811807,-80.14671518,57:37.1,10/21/21,11,1.177,11.14,-7.117706431,0.83,50.7,46.42,1.02,-0.65,36.5,0,3.38,3.39,93,28,511.2,16.2,-1.7,D,1221.8,0,329.611,1,1.11,155,42.98,-80.14446913,25.88334941,0,0,1,N,5.11E-02,57,57,11,117,117,43.3303,0,9999.99,3.4,3.527,2,9,30.5,0,30.5,47.05,1559.03717,10/21/21,10:33:49,26.67,68.94,47.05,1.468,7.92,-54.4,-2.3,-1.1,-50,93.3,5.74,13,
25.8811864,-80.14671231,57:38.1,10/21/21,11,1.31,11.14,-7.117706431,0.89,51.4,47.12,0.53,-6.96,36.5,0.01,3.42,3.43,93,28,511.2,16.2,-1.7,D,1221.8,0,328.951,1,1.13,155,43.02,-80.14446913,25.88334941,0,0,1,N,0.2807496,59,59,11,111,111,44.97414,0,9999.99,3.43,3.557,2,9,30.4,0,30.39999962,8.81,1519.13255,10/21/21,10:33:50,26.67,15.17,8.81,1.328,7.92,-54.6,-4.3,60.7,23980,93.3,7.11,12.9,
25.88118928,-80.1467093,57:39.1,10/21/21,11,0.973,11.14,-7.117706431,0.83,54.5,50.2,0.93,3.13,36.5,0,3.45,3.46,93,28,511.2,16.2,-1.7,D,1221.8,0,328.513,1,1.15,155,43.02,-80.14446913,25.88334941,0,0,1,N,0.2748636,63,63,11,106,106,44.93201,0,9999.99,3.46,3.587,2,9,30.4,0,30.39999962,46.87,1558.65429,10/21/21,10:33:51,26.66,68.7,46.87,1.209,7.92,-54.7,-4.1,14.9,45661,93.2,5.74,12.9,
25.88119394,-80.14670672,57:40.1,10/21/21,11,1.203,11.14,-7.117706431,0.83,52.5,48.22,2.32,-6.5,36.5,0,3.33,3.33,93,25,511.2,16.2,-1.5,D,1340.3,0,327.957,1,1.12,155,43.04,-80.14446913,25.88334941,0,0,1,N,0.4428789,71,71,11,119,119,46.13288,0,9999.99,3.33,3.457,2,9,30.4,0,30.39999962,47.03,1558.82101,10/21/21,10:33:52,26.67,68.9,47.03,1.26,7.92,-54.5,-3.9,-1.7,992,93.2,5.74,12.9,
25.88119628,-80.14670329,57:41.1,10/21/21,11,1.04,11.14,-7.117706431,0.83,54.2,49.91,0.92,-4.68,36.5,0,3.36,3.36,93,25,511.2,16.2,-1.5,D,1340.3,0,327.533,1,1.1,155,43.03,-80.14446913,25.88334941,0,0,1,N,0.3687362,58,58,11,106,106,45.60313,0,9999.99,3.38,3.507,2,9,30.4,0,30.39999962,46.97,1558.75857,10/21/21,10:33:54,26.68,68.84,46.97,1.225,7.92,-54.6,-4.4,20.7,64022,93.3,5.74,12.9,
25.88119924,-80.14670019,57:42.1,10/21/21,11,1.061,11.14,-7.117706431,0.83,55.6,51.3,1.25,0.76,36.5,0.01,3.41,3.42,93,25,511.2,16.2,-1.5,D,1340.3,0,327.08,1,1.11,155,43.03,-80.14446913,25.88334941,0,0,1,N,0.3672144,65,65,11,104,104,45.59217,0,9999.99,3.42,3.547,2,9,30.4,0,30.39999962,46.97,1558.75857,10/21/21,10:33:54,26.68,68.84,46.97,1.225,7.92,-54.6,-4.4,20.7,64022,93.3,5.74,12.9,
25.88120154,-80.14669539,57:43.1,10/21/21,11,1.05,11.14,-7.117706431,0.83,50.6,46.32,-0.86,-3.26,36.4,0.01,3.46,3.46,93,25,511.2,16.2,-1.5,D,1338.6,0,326.567,1,1.22,155,43,-80.14446913,25.88334941,0,0,1,N,0.1861894,52,52,11,119,119,44.29734,0,9999.99,3.47,3.597,2,9,30.4,0,30.39999962,46.79,1558.57091,10/21/21,10:33:55,26.69,68.61,46.79,1.217,7.93,-54.8,-3.6,-16.6,27958,93.3,5.75,13,
25.88120285,-80.14669127,57:44.1,10/21/21,11,1.189,11.14,-7.117706431,0.83,59.1,54.75,2.8,1.04,36.4,0.01,3.46,3.47,93,25,511.2,16.2,-1.5,D,1338.6,0,326.179,1,1.14,155,42.96,-80.14446913,25.88334941,0,0,1,N,8.14E-03,74,74,11,74,74,42.9056,0,9999.99,3.45,3.577,2,9,30.4,0,30.39999962,46.96,1558.74836,10/21/21,10:33:57,26.68,68.83,46.96,1.295,7.93,-54.9,-3.2,-5.6,2661,93.3,5.74,12.9,
25.88120721,-80.14668789,57:45.2,10/21/21,11,1.008,11.14,-7.117706431,0.83,51.4,47.12,0.45,5.9,36.5,0,3.39,3.39,93,25,511.2,16.2,-1.5,D,1338.6,0,325.593,1,1.15,155,42.98,-80.14446913,25.88334941,0,0,1,N,6.86E-02,60,60,11,112,112,43.45509,0,9999.99,3.41,3.537,2,9,30.4,0,30.39999962,46.96,1558.74836,10/21/21,10:33:57,26.68,68.83,46.96,1.295,7.93,-54.9,-3.2,-5.6,2661,93.3,5.74,12.9,
25.88121168,-80.14668581,57:46.2,10/21/21,11,1.004,11.14,-7.117706431,0.83,48.9,44.63,1.21,-4.84,36.5,0,3.44,3.44,93,25,511.2,16.2,-1.5,D,1338.6,0,325.088,1,1.11,155,43.01,-80.14446913,25.88334941,0,0,1,N,0.2515817,64,64,11,128,128,44.76508,0,9999.99,3.44,3.567,2,9,30.4,0,30.39999962,33.73,1544.96732,10/21/21,10:33:58,26.68,51.4,33.73,1.199,7.93,-54.9,-2.8,-2,7315,93.3,6.19,12.9,
25.88121565,-80.14668188,57:47.2,10/21/21,11,1.299,11.14,-7.117706431,0.83,49,44.73,1.38,-0.48,36.5,0.01,3.5,3.51,93,26,511.2,16.2,-1.6,D,1325.1,0,324.496,1,1.08,155,43.01,-80.14446913,25.88334941,0,0,1,N,0.263368,58,58,11,121,121,44.8494,0,9999.99,3.51,3.637,2,9,30.3,0,30.29999924,41.5,1552.85592,10/21/21,10:34:00,26.68,61.75,41.5,1.44,7.93,-55,-2.5,12.9,-3130,93.3,5.92,12.9,
25.88121996,-80.14667877,57:48.2,10/21/21,11,0.917,11.14,-7.117706431,0.83,49.7,45.43,0.17,1.98,36.5,0.01,3.38,3.39,93,26,511.2,16.2,-1.6,D,1325.1,0,323.935,1,1.11,155,43.03,-80.14446913,25.88334941,0,0,1,N,0.3596837,64,64,11,133,133,45.53812,0,9999.99,3.39,3.517,2,9,30.3,0,30.29999924,41.5,1552.85592,10/21/21,10:34:00,26.68,61.75,41.5,1.44,7.93,-55,-2.5,12.9,-3130,93.3,5.92,12.9,
25.88122515,-80.14667565,57:49.2,10/21/21,11,1.271,11.14,-7.117706431,0.83,47.2,42.93,1.69,-7.4,36.5,0,3.36,3.36,93,26,511.2,16.2,-1.6,D,1325.1,0,323.3,1,1.09,154,43.06,-80.14446913,25.88334941,0,0,1,N,0.5292857,62,62,11,128,128,46.74901,0,9999.99,3.36,3.487,2,9,30.3,0,30.29999924,46.94,1558.5316,10/21/21,10:34:01,26.68,68.8,46.94,1.265,7.93,-55.1,-5.3,-6.6,-4616,93.4,5.75,13,
25.88123008,-80.1466723,57:50.2,10/21/21,11,0.931,11.14,-7.117706431,0.83,46.9,42.63,-0.35,-5.42,36.5,0,3.34,3.35,93,26,511.1,16.2,-1.6,D,1312.8,0,322.67,1,1.12,154,43.08,-80.14446913,25.88334941,0,0,1,N,0.6480914,55,55,11,147,147,47.59517,0,9999.99,3.34,3.467,2,9,30.3,0,30.29999924,27.8,1538.59613,10/21/21,10:34:03,26.68,43.25,27.8,1.165,7.93,-55.1,-5,-0.3,75924,93.4,6.41,12.9,
25.88123259,-80.14666827,57:51.2,10/21/21,11,1.195,11.14,-7.117706431,0.83,49.6,45.33,2.02,-4.56,36.5,0,3.38,3.39,93,26,511.1,16.2,-1.6,D,1312.8,0,322.191,1,1.1,154,43.07,-80.14446913,25.88334941,0,0,1,N,0.549021,69,69,11,133,133,46.88951,0,9999.99,3.4,3.527,2,9,30.3,0,30.29999924,27.8,1538.59613,10/21/21,10:34:03,26.68,43.25,27.8,1.165,7.93,-55.1,-5,-0.3,75924,93.4,6.41,12.9,
25.88123648,-80.14666488,57:52.3,10/21/21,11,1.088,11.14,-7.117706431,0.83,56,51.69,0.7,-1.95,36.5,0.01,3.34,3.35,93,26,511.1,16.2,-1.6,D,1312.8,0,321.643,1,1.07,154,43.07,-80.14446913,25.88334941,0,0,1,N,0.6073646,53,53,11,109,109,47.3051,0,9999.99,3.33,3.457,2,9,30.3,0,30.29999924,46.93,1558.52132,10/21/21,10:34:04,26.67,68.78,46.93,1.334,7.93,-55.2,-4.3,-6.2,1240,93.4,5.75,12.8,
25.88124286,-80.14666265,57:53.3,10/21/21,11,1.219,11.14,-7.117706431,0.83,57.5,53.18,-1.53,1.88,36.5,0.01,3.37,3.38,93,26,511.1,16.2,-1.6,D,1312.8,0,320.973,1,1.09,154,43.13,-80.14446913,25.88334941,0,0,1,N,0.9290915,48,48,11,113,113,49.58815,0,9999.99,3.36,3.487,2,9,30.3,0,30.29999924,46.94,1558.53213,10/21/21,10:34:06,26.64,68.8,46.94,1.178,7.93,-55.4,-3,0.5,99031,93.4,5.75,13,
25.88124635,-80.14665869,57:54.3,10/21/21,11,0.926,11.14,-7.117706431,0.83,50.5,46.22,2.41,-9.8,36.5,0.01,3.34,3.35,93,25,511.1,16.2,-1.5,D,1347.7,0,320.419,1,1.05,154,43.13,-80.14446913,25.88334941,0,0,1,N,0.8944557,71,71,11,139,139,49.34319,0,9999.99,3.36,3.487,2,9,30.3,0,30.29999924,46.94,1558.53213,10/21/21,10:34:06,26.64,68.8,46.94,1.178,7.93,-55.4,-3,0.5,99031,93.4,5.75,13,
25.88125052,-80.14665358,57:55.3,10/21/21,11,1.318,11.14,-7.117706431,0.83,57.1,52.78,-0.26,-5.04,36.6,0.01,3.39,3.4,93,25,511.1,16.2,-1.5,D,1347.7,0,319.731,1,1.06,154,43.12,-80.14446913,25.88334941,0,0,1,N,0.845561,53,53,11,106,106,48.99688,0,9999.99,3.38,3.507,2,9,30.3,0,30.29999924,46.92,1558.51087,10/21/21,10:34:07,26.66,68.77,46.92,1.465,7.93,-55.3,-4.4,-5.3,3087,93.3,5.75,12.9,
25.88125406,-80.14665041,57:56.3,10/21/21,11,0.925,11.14,-7.117706431,0.83,56.1,51.79,-1.3,1.32,36.6,0.01,3.48,3.49,93,25,511.1,16.2,-1.5,D,1347.7,0,319.226,1,1.04,154,43.12,-80.14446913,25.88334941,0,0,1,N,0.8777938,50,50,11,120,120,49.22507,0,9999.99,3.47,3.597,2,9,30.2,0,30.29999924,46.88,1558.46966,10/21/21,10:34:09,26.68,68.72,46.88,1.368,7.94,-55.4,-2.9,-4,164560,93.4,5.75,12.9,
25.88125714,-80.14664658,57:57.3,10/21/21,11,0.893,11.14,-7.117706431,0.83,51.9,47.62,3,-3.62,36.6,0.01,3.42,3.44,93,25,511.1,16.2,-1.5,D,1347.7,0,318.715,1,1,154,43.12,-80.14446913,25.88334941,0,0,1,N,0.823768,75,75,11,136,136,48.84248,0,9999.99,3.45,3.577,2,9,30.2,0,30.20000076,45.09,1556.40391,10/21/21,10:34:10,26.68,66.42,45.09,1.367,7.94,-55.5,-5.5,-1.4,10784,93.5,5.82,12.9,
25.88125982,-80.14664149,57:58.3,10/21/21,11,1.257,30.85,-7.117706431,0.83,54.1,49.81,0.1,-8.1,36.6,0.01,3.36,3.37,93,25,511.1,16.2,-1.5,D,1344.2,0,318.149,1,1.07,154,43.09,-80.14446913,25.88334941,0,0,1,N,0.6597341,53,53,11,116,116,47.67764,0,9999.99,3.35,3.477,2,9,30.2,0,30.20000076,45.09,1556.40391,10/21/21,10:34:10,26.68,66.42,45.09,1.367,7.94,-55.5,-5.5,-1.4,10784,93.5,5.82,12.9,
25.88126235,-80.14663666,57:59.3,10/21/21,11,0.859,30.85,-7.117706431,0.83,56.3,51.99,0.01,-2.16,36.5,0.01,3.37,3.39,93,25,511.1,16.2,-1.5,D,1344.2,0,317.613,1,1.05,154,43.06,-80.14446913,25.88334941,0,0,1,N,0.500515,62,62,11,111,111,46.54311,0,9999.99,3.38,3.507,2,9,30.2,0,30.20000076,32.82,1543.61028,10/21/21,10:34:11,26.69,50.17,32.82,1.152,7.94,-55.5,-4.2,-0.3,39492,93.4,6.23,12.9,
25.88126418,-80.14663257,58:00.3,10/21/21,11,0.967,30.85,-7.117706431,0.83,54.4,50.11,3.41,0.43,36.5,0.01,3.33,3.34,93,25,511.1,16.2,-1.5,D,1344.2,0,317.186,1,1.03,154,43.03,-80.14446913,25.88334941,0,0,1,N,0.3376623,77,77,11,108,108,45.38006,0,9999.99,3.36,3.487,2,9,30.2,0,30.20000076,46.84,1558.23165,10/21/21,10:34:13,26.69,68.67,46.84,1.345,7.94,-55.5,-4.3,-2.3,-2421,93.4,5.75,13,
25.88126796,-80.14662809,58:01.3,10/21/21,11,1.157,30.85,-7.117706431,0.83,62.4,58,-1.73,-1.52,36.5,0.01,3.3,3.31,93,25,511.1,16.2,-1.5,D,1355.3,0,316.573,1,1.12,154,43.02,-80.14446913,25.88334941,0,0,1,N,0.3087552,47,47,11,76,76,45.17322,0,9999.99,3.28,3.407,2,9,30.2,0,30.20000076,46.84,1558.23165,10/21/21,10:34:13,26.69,68.67,46.84,1.345,7.94,-55.5,-4.3,-2.3,-2421,93.4,5.75,13,
25.88127174,-80.14662447,58:02.3,10/21/21,11,0.744,30.85,-7.117706431,0.83,55.2,50.9,0.43,3.99,36.5,0.01,3.36,3.37,93,25,511.1,16.2,-1.5,D,1355.3,0,316.019,1,1.03,154,43.02,-80.14446913,25.88334941,0,0,1,N,0.317829,60,60,11,104,104,45.23809,0,9999.99,3.37,3.497,2,9,30.2,0,30.20000076,46.85,1558.24218,10/21/21,10:34:15,26.66,68.68,46.85,1.418,7.94,-55.7,-4.9,0,23686,93.4,5.76,13,
25.88127506,-80.14662076,58:03.4,10/21/21,11,1.235,30.85,-7.117706431,0.83,54.2,49.91,2.44,-3.03,36.5,0,3.34,3.34,93,25,511.1,16.2,-1.5,D,1337.3,0,315.496,1,1.06,154,43.02,-80.14446913,25.88334941,0,0,1,N,0.2978799,72,72,11,108,108,45.09541,0,9999.99,3.36,3.487,2,9,30.2,0,30.20000076,46.85,1558.24218,10/21/21,10:34:15,26.66,68.68,46.85,1.418,7.94,-55.7,-4.9,0,23686,93.4,5.76,13,
25.88127828,-80.14661619,58:04.4,10/21/21,11,1.122,30.85,-7.117706431,0.83,53.9,49.61,2.08,-3.67,36.5,0,3.36,3.36,93,25,511.1,16.2,-1.5,D,1337.3,0,314.922,1,1.06,154,43,-80.14446913,25.88334941,0,0,1,N,0.209718,62,62,11,104,104,44.46448,0,9999.99,3.36,3.487,2,9,30.2,0,30.20000076,46.78,1558.1681,10/21/21,10:34:16,26.68,68.59,46.78,1.258,7.94,-55.8,-4.5,-7.9,7283,93.4,5.76,12.8,
25.88128111,-80.14661306,58:05.4,10/21/21,11,1.135,30.85,-7.117706431,0.83,56.3,51.99,-1.54,1.7,36.5,0.01,3.38,3.39,93,25,511.1,16.2,-1.5,D,1337.3,0,314.478,1,1.09,154,43,-80.14446913,25.88334941,0,0,1,N,0.1928742,48,48,11,96,96,44.34385,0,9999.99,3.37,3.497,2,9,30.2,0,30.20000076,24.53,1534.98823,10/21/21,10:34:17,26.68,38.65,24.53,1.149,7.94,-55.7,-4.4,3.4,9720,93.4,6.52,13,
25.88128462,-80.14661024,58:06.4,10/21/21,11,0.92,30.85,-7.117706431,0.83,51.5,47.22,2.36,0.98,36.5,0.01,3.37,3.38,93,25,511,16.2,-1.5,D,1350.1,0,314,1,1,154,43.01,-80.14446913,25.88334941,0,0,1,N,0.245695,71,71,11,117,117,44.72183,0,9999.99,3.4,3.527,2,9,30.2,0,30.20000076,46.82,1558.21046,10/21/21,10:34:19,26.66,68.64,46.82,1.425,7.94,-55.8,-4.8,0.6,483,93.5,5.76,13,
25.88128777,-80.1466062,58:07.4,10/21/21,11,1.215,30.85,-7.117706431,0.83,56.2,51.89,1.1,0.82,36.5,0,3.35,3.35,93,25,511,16.2,-1.5,D,1350.1,0,313.468,1,1.1,154,43,-80.14446913,25.88334941,0,0,1,N,0.196728,56,56,11,104,104,44.37138,0,9999.99,3.34,3.467,2,9,30.1,0,30.20000076,46.82,1558.21046,10/21/21,10:34:19,26.66,68.64,46.82,1.425,7.94,-55.8,-4.8,0.6,483,93.5,5.76,13,
25.88129122,-80.1466031,58:08.4,10/21/21,10,0.959,30.85,-7.117706431,0.89,48.9,44.63,-0.86,0.46,36.5,0,3.43,3.44,93,25,511,16.2,-1.5,D,1350.1,0,312.976,1,1.05,154,43.01,-80.14446913,25.88334941,0,0,1,N,0.2187543,55,55,11,134,134,44.52896,0,9999.99,3.43,3.557,2,9,30.1,0,30.10000038,17.04,1526.99632,10/21/21,10:34:20,26.67,27.79,17.04,1.118,7.94,-55.8,8.2,-0.2,80179,93.4,6.8,12.9,
25.88129327,-80.14660017,58:09.4,10/21/21,11,0.974,30.85,-7.117706431,0.83,46.1,41.82,2.33,-8.9,36.5,0,3.32,3.32,93,25,511,16.2,-1.5,D,1350.1,0,312.61,1,1.04,154,43,-80.14446913,25.88334941,0,0,1,N,0.1592316,71,71,11,136,136,44.10289,0,9999.99,3.34,3.467,2,9,30.1,0,30.10000038,46.76,1557.95029,10/21/21,10:34:22,26.66,68.57,46.76,1.324,7.94,-55.9,-3.1,-7.6,1738,93.4,5.76,12.9,
25.88129655,-80.14659385,58:10.4,10/21/21,11,1.192,30.85,-7.117706431,0.83,51.9,47.62,0.34,-2.67,36.5,0,3.26,3.27,92,25,511,16.2,-1.5,D,1336.4,0,311.912,1,1.07,154,42.96,-80.14446913,25.88334941,0,0,1,N,4.37E-02,59,59,11,107,107,42.64954,0,9999.99,3.26,3.387,2,9,30.1,0,30.10000038,46.76,1557.95029,10/21/21,10:34:22,26.66,68.57,46.76,1.324,7.94,-55.9,-3.1,-7.6,1738,93.4,5.76,12.9,
25.88130034,-80.14659128,58:11.4,10/21/21,11,0.8,30.85,-7.117706431,0.83,51.9,47.62,-1.75,4.56,36.5,0.01,3.41,3.42,92,25,511,16.2,-1.5,D,1336.4,0,311.428,1,1.04,154,42.98,-80.14446913,25.88334941,0,0,1,N,5.32E-02,47,47,11,110,110,43.34323,0,9999.99,3.41,3.537,2,9,30.1,0,30.10000038,46.79,1557.98203,10/21/21,10:34:24,26.67,68.6,46.79,1.282,7.94,-55.9,-4.4,-3.2,-533,93.3,5.75,12.8,
25.88130413,-80.14658849,58:12.4,10/21/21,11,1.11,30.85,-7.117706431,0.83,47.4,43.13,1.79,-5.24,36.5,0.01,3.33,3.34,92,25,511,16.2,-1.5,D,1336.4,0,310.929,1,0.98,154,42.99,-80.14446913,25.88334941,0,0,1,N,0.1261395,66,66,11,133,133,43.86579,0,9999.99,3.34,3.467,2,9,30.1,0,30.10000038,46.66,1557.8462,10/21/21,10:34:25,26.66,68.44,46.66,1.454,7.94,-56,-5.2,-2.8,-1729,93.3,5.76,13,
25.88130776,-80.14658494,58:13.4,10/21/21,11,1.166,30.85,-7.117706431,0.83,52.3,48.02,1.83,-1.24,36.6,0,3.38,3.38,92,25,511,16.2,-1.5,D,1344.8,0,310.392,1,1.06,154,43,-80.14446913,25.88334941,0,0,1,N,0.1536011,68,68,11,111,111,44.06232,0,9999.99,3.39,3.517,2,9,30.1,0,30.10000038,46.79,1557.98167,10/21/21,10:34:26,26.66,68.6,46.79,1.18,7.95,-56.1,-4.6,-5.2,2705,93.3,5.75,12.9,
25.88131209,-80.14658123,58:14.4,10/21/21,10,1.153,30.85,-7.117706431,0.89,46.8,42.53,1.49,-2.87,36.6,0,3.36,3.37,92,25,511,16.2,-1.5,D,1344.8,0,309.787,1,1.01,154,43.01,-80.14446913,25.88334941,0,0,1,N,0.1993041,66,66,11,134,134,44.38956,0,9999.99,3.38,3.507,2,9,30.1,0,30.10000038,46.77,1557.96063,10/21/21,10:34:27,26.68,68.58,46.77,1.244,7.95,-56,-1.1,-5.5,58912,93.2,5.75,12.9,
25.88131542,-80.14657711,58:15.5,10/21/21,11,0.873,30.85,-7.117706431,0.83,54.9,50.6,0.7,-1.32,36.5,0,3.39,3.39,92,25,511,16.2,-1.5,D,1344.8,0,309.235,1,1.07,154,43,-80.14446913,25.88334941,0,0,1,N,0.163959,61,61,11,101,101,44.1365,0,9999.99,3.4,3.527,2,9,30.1,0,30.10000038,46.74,1557.92928,10/21/21,10:34:28,26.69,68.54,46.74,1.197,7.95,-56,-5.9,-6.9,520,93.4,5.75,12.8,
25.88131833,-80.14657467,58:16.5,10/21/21,11,0.942,30.85,-7.117706431,0.83,52.3,48.02,1.27,-2.28,36.6,0,3.38,3.38,92,25,511,16.2,-1.5,D,1344.8,0,308.832,1,1.05,154,43,-80.14446913,25.88334941,0,0,1,N,0.199941,69,69,11,118,118,44.39389,0,9999.99,3.4,3.527,2,9,30.1,0,30.10000038,46.75,1557.93958,10/21/21,10:34:29,26.69,68.55,46.75,1.287,7.95,-56.2,-5.7,-10.4,11587,93.4,5.76,13,
25.8813216,-80.14656965,58:17.5,10/21/21,11,1.11,30.85,-7.117706431,0.89,55,50.7,1.39,-5.25,36.6,0,3.33,3.33,92,25,511,16.2,-1.5,D,1371.6,0,308.223,1,1.05,154,42.98,-80.14446913,25.88334941,0,0,1,N,8.88E-02,65,65,11,99,99,43.59808,0,9999.99,3.34,3.467,2,9,30.1,0,30.10000038,45.83,1556.97796,10/21/21,10:34:30,26.69,67.37,45.83,1.175,7.95,-56.2,-3.1,-7.9,94194,93.6,5.8,12.9,
25.88132338,-80.1465656,58:18.5,10/21/21,10,0.731,30.85,-7.117706431,0.89,54.3,50.01,0.03,1.82,36.5,0,3.35,3.35,92,25,511,16.2,-1.5,D,1371.6,0,307.802,1,1.05,154,42.95,-80.14446913,25.88334941,0,0,1,N,7.67E-02,57,57,11,97,97,42.41261,0,9999.99,3.36,3.487,2,9,30.1,0,30.10000038,46.75,1557.93958,10/21/21,10:34:31,26.67,68.55,46.75,1.208,7.95,-56.1,-6,-4.8,5746,93.5,5.77,12.9,
25.88132504,-80.14656127,58:19.5,10/21/21,11,0.977,30.85,-7.117706431,0.83,50.5,46.22,2.21,-4.65,36.5,0,3.3,3.31,92,25,511,16.2,-1.5,D,1371.6,0,307.372,1,1.05,154,42.92,-80.14446913,25.88334941,0,0,1,N,0.272782,70,70,11,105,105,41.00918,0,9999.99,3.32,3.447,2,9,30,0,30,45.56,1556.49756,10/21/21,10:34:32,26.68,67.03,45.56,1.289,7.95,-56.2,-3.6,0.7,1720,93.6,5.81,12.7,
25.88132937,-80.14655737,58:20.5,10/21/21,11,1.024,30.85,-7.117706431,0.83,51.8,47.52,1.12,-0.38,36.6,0,3.29,3.3,92,25,510.9,16.2,-1.5,D,1353.2,0,306.754,1,1.05,154,42.92,-80.14446913,25.88334941,0,0,1,N,0.2275034,61,61,11,96,96,41.33311,0,9999.99,3.3,3.427,2,9,30,0,30,46.73,1557.72141,10/21/21,10:34:33,26.68,68.53,46.73,1.217,7.95,-56.2,-5.5,-3.6,16999,93.5,5.77,12.9,
25.88133304,-80.1465546,58:21.5,10/21/21,11,0.947,30.85,-7.117706431,0.83,55.2,50.9,-2.17,2.66,36.5,0.01,3.26,3.27,92,25,510.9,16.2,-1.5,D,1353.2,0,306.266,1,1.06,154,42.94,-80.14446913,25.88334941,0,0,1,N,0.1473959,44,44,11,91,91,41.90643,0,9999.99,3.25,3.377,2,9,30,0,30,46.73,1557.72148,10/21/21,10:34:34,26.68,68.52,46.73,1.304,7.95,-56.2,26.7,-5.5,-1103,93.5,5.77,12.9,
25.88133791,-80.14655196,58:22.5,10/21/21,11,0.636,30.85,-7.117706431,0.83,45.2,40.92,3.15,0.17,36.6,0.01,3.24,3.25,92,25,510.9,16.2,-1.5,D,1353.2,0,305.69,1,1.02,154,42.97,-80.14446913,25.88334941,0,0,1,N,9.65E-03,79,79,11,145,145,43.03112,0,9999.99,3.26,3.387,2,9,30,0,30,39.59,1550.26007,10/21/21,10:34:35,26.67,59.24,39.59,1.46,7.95,-56.2,-4.8,-7,885,93.6,6.01,13,
25.88134276,-80.14654872,58:23.5,10/21/21,11,1.291,30.85,-7.117706431,0.83,45.6,41.32,1.5,-8,36.5,0.01,3.3,3.31,92,25,510.9,16.2,-1.5,D,1353.2,0,305.074,1,1.09,154,43,-80.14446913,25.88334941,0,0,1,N,0.1452783,66,66,11,138,138,44.00236,0,9999.99,3.3,3.427,2,9,30,0,30,46.16,1557.12575,10/21/21,10:34:36,26.68,67.8,46.16,1.14,7.95,-56.3,-5.8,-2.2,-187,93.6,5.79,12.7,
25.88134673,-80.14654688,58:24.5,10/21/21,11,0.796,30.85,-7.117706431,0.83,48.5,44.23,-1.13,1.53,36.6,0,3.33,3.34,92,25,510.9,16.2,-1.5,D,1349.7,0,304.626,1,1.03,154,43.03,-80.14446913,25.88334941,0,0,1,N,0.3164444,50,50,11,131,131,45.22708,0,9999.99,3.33,3.457,2,9,30,0,30,46.71,1557.70081,10/21/21,10:34:37,26.68,68.5,46.71,1.226,7.95,-56.3,-4.6,-6.3,895,93.6,5.77,12.9,
25.88135062,-80.14654306,58:25.6,10/21/21,11,1.296,30.85,-7.117706431,0.83,47.6,43.33,2.63,-2.32,36.6,0.01,3.29,3.3,92,25,510.9,16.2,-1.5,D,1349.7,0,304.048,1,1.07,154,43.03,-80.14446913,25.88334941,0,0,1,N,0.3296362,77,77,11,133,133,45.32131,0,9999.99,3.32,3.447,2,9,30,0,30,41.07,1551.80511,10/21/21,10:34:38,26.67,61.2,41.07,1.39,7.95,-56.3,-3.9,-4.2,-7076,93.7,5.97,12.9,
25.88135468,-80.14653855,58:26.6,10/21/21,11,1.157,30.85,-7.117706431,0.83,47.1,42.83,1.39,-5.35,36.6,0,3.34,3.35,92,25,510.9,16.2,-1.5,D,1349.7,0,303.411,1,1.06,154,43.03,-80.14446913,25.88334941,0,0,1,N,0.3086694,65,65,11,136,136,45.17146,0,9999.99,3.34,3.467,2,9,30,0,30,46.28,1557.25074,10/21/21,10:34:39,26.68,67.95,46.28,1.108,7.95,-56.3,-5.6,1.9,-1764,93.7,5.79,13,
25.8813584,-80.14653508,58:27.6,10/21/21,11,1.011,30.85,-7.117706431,0.83,55.8,51.49,1.59,0.85,36.7,0,3.28,3.29,92,25,510.9,16.2,-1.5,D,1349.7,0,302.872,1,1.12,154,43.03,-80.14446913,25.88334941,0,0,1,N,0.3524238,67,67,11,103,103,45.48424,0,9999.99,3.29,3.417,2,9,30,0,30,46.71,1557.70048,10/21/21,10:34:40,26.67,68.5,46.71,1.219,7.95,-56.4,-3.2,-2.1,-582,93.6,5.77,12.8,
25.88136293,-80.14653361,58:28.6,10/21/21,10,0.845,30.85,-7.117706431,0.89,48.9,44.63,-0.73,0.76,36.6,0,3.33,3.33,92,25,510.9,16.2,-1.5,D,1367,0,302.403,1,1.02,154,43.08,-80.14446913,25.88334941,0,0,1,N,0.5698079,53,53,11,137,137,47.03582,0,9999.99,3.34,3.467,2,9,30,0,30,46.7,1557.68977,10/21/21,10:34:41,26.68,68.49,46.7,1.253,7.95,-56.4,-4.7,-2.1,6288,93.6,5.77,13.1,
25.88136402,-80.14652843,58:29.6,10/21/21,11,1.235,30.85,-7.117706431,0.83,49.7,45.43,2.82,-4.93,36.7,0,3.28,3.29,92,25,510.9,16.2,-1.5,D,1367,0,301.961,1,1.1,154,43.02,-80.14446913,25.88334941,0,0,1,N,0.2792864,75,75,11,116,116,44.96111,0,9999.99,3.3,3.427,2,9,30,0,30,39.4,1550.0609,10/21/21,10:34:42,26.69,58.99,39.4,1.308,7.95,-56.4,-5.2,-2.5,475,93.5,6.01,13,
25.88136744,-80.14652482,58:30.6,10/21/21,11,1.035,30.85,-7.117706431,0.83,50.2,45.92,-0.12,0.22,36.6,0,3.33,3.33,92,25,510.9,16.2,-1.5,D,1367,0,301.437,1,1.08,154,43.02,-80.14446913,25.88334941,0,0,1,N,0.2706714,56,56,11,123,123,44.89942,0,9999.99,3.32,3.447,2,9,30,0,30,46.68,1557.66912,10/21/21,10:34:43,26.69,68.47,46.68,1.165,7.95,-56.4,-3.6,-8.3,2510,93.5,5.76,12.9,
25.88137195,-80.14652195,58:31.6,10/21/21,11,1.139,30.85,-7.117706431,0.83,49.9,45.63,1.72,-2.22,36.6,0.01,3.33,3.34,92,25,510.9,16.2,-1.5,D,1355.6,0,300.874,1,1.09,154,43.04,-80.14446913,25.88334941,0,0,1,N,0.403397,71,71,11,123,123,45.84831,0,9999.99,3.36,3.487,2,9,30,0,30,46.69,1557.67959,10/21/21,10:34:44,26.67,68.47,46.69,1.314,7.95,-56.5,-4.3,-3.7,2581,93.6,5.77,12.8,
25.88137505,-80.14651833,58:32.6,10/21/21,11,0.895,30.85,-7.117706431,0.83,51.9,47.62,1.25,-1.7,36.6,0,3.35,3.35,92,25,510.9,16.2,-1.5,D,1355.6,0,300.375,1,1.05,154,43.04,-80.14446913,25.88334941,0,0,1,N,0.3755005,65,65,11,121,121,45.64889,0,9999.99,3.36,3.487,2,9,30,0,30,26.58,1536.69599,10/21/21,10:34:45,26.69,41.54,26.58,1.118,7.95,-56.4,-6,-12.1,20062,93.6,6.46,12.9,
25.88137785,-80.1465134,58:33.6,10/21/21,10,1.212,30.85,-7.117706431,0.89,47.3,43.03,2.03,-4.13,36.6,0,3.39,3.39,92,25,510.9,16.2,-1.5,D,1355.6,0,299.811,1,1.05,154,43.01,-80.14446913,25.88334941,0,0,1,N,0.2206549,73,73,11,128,128,44.54134,0,9999.99,3.41,3.537,2,9,29.9,0,29.89999962,39.89,1550.36939,10/21/21,10:34:46,26.68,59.64,39.89,1.214,7.95,-56.3,-4.3,-5.4,-6135,93.5,5.99,12.9,
25.881382,-80.14651006,58:34.6,10/21/21,10,1.041,30.85,-7.117706431,0.89,53.8,49.51,0.81,-1.2,36.6,0.01,3.33,3.34,92,25,510.9,16.2,-1.5,D,1355.6,0,299.246,1,1.09,154,43.02,-80.14446913,25.88334941,0,0,1,N,0.296492,62,62,11,109,109,45.08391,0,9999.99,3.33,3.457,2,9,29.9,0,29.89999962,23.96,1533.75565,10/21/21,10:34:47,26.69,37.84,23.96,1.114,7.95,-56.5,-4.2,0.4,4520,93.5,6.55,13,
25.88138616,-80.14650612,58:35.6,10/21/21,10,1.32,37.18,-7.117706431,0.89,51.8,47.52,1.63,1.87,36.6,0.01,3.31,3.32,92,25,510.8,16.2,-1.5,D,1365.2,0,298.638,1,1.12,154,43.03,-80.14446913,25.88334941,0,0,1,N,0.3242719,67,67,11,110,110,45.2826,0,9999.99,3.33,3.457,2,9,29.9,0,29.89999962,46.67,1557.46071,10/21/21,10:34:48,26.67,68.45,46.67,1.261,7.95,-56.5,-5.5,-2,2660,93.5,5.77,12.8,
25.88139062,-80.14650182,58:36.6,10/21/21,10,0.986,37.18,-7.117706431,0.89,50.6,46.32,1.73,-2.02,36.6,0,3.33,3.33,92,25,510.8,16.2,-1.5,D,1365.2,0,297.982,1,1.06,154,43.03,-80.14446913,25.88334941,0,0,1,N,0.3392426,66,66,11,128,128,45.38957,0,9999.99,3.34,3.467,2,9,29.9,0,29.89999962,46.66,1557.45017,10/21/21,10:34:49,26.68,68.43,46.66,1.245,7.95,-56.5,-4.4,-3.7,37812,93.5,5.77,12.9,
25.88139574,-80.14649709,58:37.6,10/21/21,10,1.352,37.18,-7.117706431,0.89,52.1,47.82,2.08,-5.25,36.6,0,3.31,3.31,92,25,510.8,16.2,-1.5,D,1365.2,0,297.243,1,1.09,154,43.04,-80.14446913,25.88334941,0,0,1,N,0.3911143,69,69,11,119,119,45.76026,0,9999.99,3.32,3.447,2,9,29.9,0,29.89999962,46.65,1557.43925,10/21/21,10:34:50,26.69,68.42,46.65,1.17,7.95,-56.5,-4.7,-1.6,-316,93.6,5.77,12.9,
25.88139953,-80.14649366,58:38.6,10/21/21,10,0.97,37.18,-7.117706431,0.89,53.6,49.31,-0.03,3.58,36.6,0,3.36,3.36,92,25,510.8,16.2,-1.5,D,1362.5,0,296.701,1,1.04,154,43.05,-80.14446913,25.88334941,0,0,1,N,0.4241174,56,56,11,118,118,45.9959,0,9999.99,3.37,3.497,2,9,29.9,0,29.89999962,46.64,1557.42878,10/21/21,10:34:51,26.7,68.41,46.64,1.203,7.95,-56.6,-4.4,-2.3,39543,93.5,5.77,13,
25.88140381,-80.14648884,58:39.6,10/21/21,10,1.211,37.18,-7.117706431,0.89,49.5,45.23,0.62,-4.34,36.6,0,3.32,3.32,92,25,510.8,16.2,-1.5,D,1362.5,0,296.024,1,1.05,154,43.04,-80.14446913,25.88334941,0,0,1,N,0.3924573,67,67,11,134,134,45.76967,0,9999.99,3.34,3.467,2,9,29.9,0,29.89999962,43.73,1554.38415,10/21/21,10:34:52,26.69,64.66,43.73,1.254,7.95,-56.5,-4.9,0.4,1189,93.6,5.87,12.8,
25.88140878,-80.14648368,58:40.6,10/21/21,9,1.352,37.18,-7.117706431,0.92,48.5,44.23,2.48,-5.04,36.7,0,3.36,3.36,92,25,510.8,16.2,-1.5,D,1362.5,0,295.268,1,1.14,154,43.04,-80.14446913,25.88334941,0,0,1,N,0.3952448,72,72,11,133,133,45.78952,0,9999.99,3.36,3.487,2,9,29.9,0,29.89999962,19.57,1529.18904,10/21/21,10:34:53,26.69,31.51,19.57,1.148,7.96,-56.6,-5.7,-4.2,13325,93.6,6.72,12.9,
25.88141393,-80.14648211,58:41.6,10/21/21,10,0.923,37.18,-7.117706431,0.89,52,47.72,2.22,-1.3,36.6,0,3.35,3.35,92,25,510.8,16.2,-1.5,D,1362.5,0,294.743,1,1.08,154,43.1,-80.14446913,25.88334941,0,0,1,N,0.6717,67,67,11,128,128,47.76059,0,9999.99,3.36,3.487,2,9,29.9,0,29.89999962,46.64,1557.42909,10/21/21,10:34:54,26.68,68.42,46.64,1.193,7.95,-56.5,-3.3,-5.1,83286,93.7,5.78,12.9,
25.88141746,-80.14647793,58:42.6,10/21/21,10,1.207,37.18,-7.117706431,0.89,52,47.72,1.15,-0.03,36.6,0,3.32,3.33,92,25,510.8,16.2,-1.5,D,1342.6,0,294.17,1,1.13,154,43.09,-80.14446913,25.88334941,0,0,1,N,0.6317511,65,65,11,132,132,47.47635,0,9999.99,3.34,3.467,2,9,29.9,0,29.89999962,46.61,1557.39754,10/21/21,10:34:55,26.69,68.38,46.61,1.176,7.95,-56.5,-4.5,-1.5,-3238,93.7,5.78,13,
25.88142026,-80.14647379,58:43.6,10/21/21,10,0.887,37.18,-7.117706431,0.89,53.5,49.21,-0.78,-2.5,36.6,0,3.32,3.33,92,25,510.8,16.2,-1.5,D,1342.6,0,293.66,1,1.07,154,43.07,-80.14446913,25.88334941,0,0,1,N,0.5420228,52,52,11,118,118,46.837,0,9999.99,3.33,3.457,2,9,29.9,0,29.89999962,46.42,1557.19875,10/21/21,10:34:56,26.7,68.13,46.42,1.186,7.95,-56.5,-4.7,-7.3,3028,93.6,5.78,12.7,
25.88142074,-80.14646613,58:44.6,10/21/21,10,1.25,37.18,-7.117706431,0.89,51.6,47.32,3.35,-4.78,36.6,0.01,3.29,3.29,92,25,510.8,16.2,-1.5,D,1342.6,0,293.098,1,1.11,154,42.97,-80.14446913,25.88334941,0,0,1,N,2.06E-02,77,77,11,110,110,43.10855,0,9999.99,3.3,3.427,2,9,29.9,0,29.89999962,38.81,1549.24116,10/21/21,10:34:57,26.7,58.21,38.81,1.324,7.95,-56.5,-5,-3.5,57,93.4,6.02,12.9,
25.88142515,-80.14646132,58:45.7,10/21/21,10,1.216,37.18,-7.117706431,0.89,52.7,48.42,1.91,-0.01,36.6,0.01,3.34,3.35,92,25,510.8,16.2,-1.5,D,1339.2,0,292.411,1,1.11,154,42.97,-80.14446913,25.88334941,0,0,1,N,1.93E-04,68,68,11,105,105,42.95941,0,9999.99,3.35,3.477,2,9,29.9,0,29.89999962,46.6,1557.38738,10/21/21,10:34:58,26.7,68.37,46.6,1.192,7.95,-56.5,-4.8,1.6,7648,93.3,5.76,12.8,
25.88142946,-80.14645852,58:46.7,10/21/21,10,1.017,37.18,-7.117706431,0.89,52.2,47.92,0.66,-0.72,36.6,0,3.23,3.23,92,25,510.8,16.2,-1.5,D,1339.2,0,291.869,1,1.08,154,42.99,-80.14446913,25.88334941,0,0,1,N,0.1202386,61,61,11,111,111,43.82194,0,9999.99,3.24,3.367,2,9,29.9,0,29.89999962,46.61,1557.39763,10/21/21,10:34:59,26.69,68.37,46.61,1.221,7.95,-56.5,-2.4,0,-3366,93.4,5.76,12.9,
25.88143354,-80.14645389,58:47.7,10/21/21,10,1.204,37.18,-7.117706431,0.89,48.9,44.63,1.87,-1.68,36.6,0,3.22,3.22,92,25,510.8,16.2,-1.5,D,1339.2,0,291.222,1,1.08,154,42.99,-80.14446913,25.88334941,0,0,1,N,8.43E-02,68,68,11,123,123,43.56429,0,9999.99,3.24,3.367,2,9,29.9,0,29.89999962,37.25,1547.61167,10/21/21,10:35:00,26.7,56.14,37.25,1.263,7.95,-56.5,-5.7,-6.8,3456,93.4,6.07,12.7,
25.88143778,-80.14645071,58:48.7,10/21/21,10,1.157,37.18,-7.117706431,0.89,45.1,40.82,1.57,-8.5,36.5,0,3.29,3.3,92,25,510.8,16.2,-1.5,D,1339.2,0,290.66,1,1.04,154,43,-80.14446913,25.88334941,0,0,1,N,0.1717062,69,69,11,144,144,44.19031,0,9999.99,3.3,3.427,2,9,29.9,0,29.89999962,43.81,1554.46767,10/21/21,10:35:01,26.7,64.77,43.81,1.146,7.95,-56.5,-4.1,-2.4,26124,93.4,5.85,12.9,
25.88144203,-80.14644639,58:49.7,10/21/21,10,1.199,37.18,-7.117706431,0.89,50.2,45.92,0.42,-4.86,36.6,0.01,3.23,3.24,92,25,510.8,16.2,-1.5,D,1344.2,0,290.019,1,1.11,154,43,-80.14446913,25.88334941,0,0,1,N,0.1876167,55,55,11,113,113,44.3041,0,9999.99,3.22,3.347,2,9,29.8,0,29.79999924,46.6,1557.18872,10/21/21,10:35:02,26.69,68.36,46.6,1.21,7.96,-56.6,-4.5,-1.5,-3582,93.4,5.76,12.9,
25.88144654,-80.14644533,58:50.7,10/21/21,10,1.028,18.63,-7.117706431,0.89,51.5,47.22,-1.02,7.05,36.6,0.01,3.33,3.34,92,25,510.8,16.2,-1.5,D,1344.2,0,289.581,1,1.02,154,43.06,-80.14446913,25.88334941,0,0,1,N,0.4402379,55,55,11,126,126,46.11054,0,9999.99,3.35,3.477,2,9,29.8,0,29.79999924,45.37,1555.90081,10/21/21,10:35:03,26.68,66.78,45.37,1.359,7.95,-56.5,-5,-1.1,4984,93.5,5.81,13,
25.88145008,-80.14644155,58:51.7,10/21/21,10,1.277,18.63,-7.117706431,0.93,51.6,47.32,2.95,-6.94,36.6,0.01,3.23,3.23,92,25,510.8,16.2,-1.5,D,1344.2,0,289.036,1,1.08,154,43.05,-80.14446913,25.88334941,0,0,1,N,0.4400814,75,75,11,122,122,46.10935,0,9999.99,3.23,3.357,2,9,29.8,0,29.79999924,41.51,1551.86056,10/21/21,10:35:04,26.69,61.76,41.51,1.193,7.95,-56.5,-0.5,1.3,134347,93.4,5.93,12.8,
25.88145271,-80.14643784,58:52.8,10/21/21,10,0.878,18.63,-7.117706431,0.89,48.9,44.63,-2.23,-1.05,36.6,0,3.33,3.34,92,25,510.7,16.2,-1.5,D,1370.2,0,288.568,1,1.01,154,43.04,-80.14446913,25.88334941,0,0,1,N,0.361562,44,44,11,131,131,45.54837,0,9999.99,3.34,3.467,2,9,29.8,0,29.79999924,46.45,1557.03115,10/21/21,10:35:06,26.67,68.17,46.45,1.443,7.95,-56.5,-4,-2,955,93.4,5.77,13,
25.88145283,-80.146433,58:53.8,10/21/21,10,0.853,18.63,-7.117706431,0.89,48.9,44.63,1.55,-2.04,36.6,0,3.25,3.26,92,25,510.7,16.2,-1.5,D,1370.2,0,288.155,1,1.09,154,43,-80.14446913,25.88334941,0,0,1,N,0.144692,66,66,11,124,124,43.99674,0,9999.99,3.27,3.397,2,9,29.8,0,29.79999924,46.45,1557.03115,10/21/21,10:35:06,26.67,68.17,46.45,1.443,7.95,-56.5,-4,-2,955,93.4,5.77,13,
25.88145583,-80.14642917,58:54.8,10/21/21,10,1.154,18.63,-7.117706431,0.89,49.5,45.23,1.32,-5.8,36.6,0,3.3,3.3,92,25,510.7,16.2,-1.5,D,1370.2,0,287.716,1,1.01,154,42.97,-80.14446913,25.88334941,0,0,1,N,7.17E-03,65,65,11,118,118,43.01187,0,9999.99,3.29,3.417,2,9,29.8,0,29.79999924,46.4,1556.97862,10/21/21,10:35:07,26.66,68.1,46.4,1.121,7.95,-56.5,-4.2,-0.7,-249,93.4,5.77,12.9,
25.88145917,-80.1464255,58:55.8,10/21/21,10,1.134,18.63,-7.117706431,0.89,51.2,46.92,0.59,-3.47,36.6,0.01,3.28,3.28,92,25,510.7,16.2,-1.5,D,1370.2,0,287.18,1,1.07,154,42.95,-80.14446913,25.88334941,0,0,1,N,8.56E-02,61,61,11,109,109,42.34719,0,9999.99,3.3,3.427,2,9,29.8,0,29.79999924,46.48,1557.06277,10/21/21,10:35:09,26.67,68.21,46.48,1.154,7.95,-56.5,-3.5,67.9,147621,93.5,5.77,13.1,
25.88146233,-80.14642144,58:56.8,10/21/21,10,1.134,18.63,-7.117706431,0.89,50.5,46.22,2.61,1.68,36.7,0.01,3.28,3.29,92,25,510.7,16.2,-1.5,D,1339.8,0,286.666,1,1.06,154,42.95,-80.14446913,25.88334941,0,0,1,N,0.1032018,73,73,11,111,111,42.22124,0,9999.99,3.28,3.407,2,9,29.8,0,29.79999924,46.48,1557.06277,10/21/21,10:35:09,26.67,68.21,46.48,1.154,7.95,-56.5,-3.5,67.9,147621,93.5,5.77,13.1,
