Latitude,Longitude,Time,Date,Number of Sats,GPS Speed (Kn),GPS True Heading,GPS Magnetic Variation,HDOP,C Magnetic Heading,C True Heading,Pitch Angle,Roll Angle,C Inside Temp (c),DFS Depth (m),DTB Height (m),Total Water Column (m),Batt Percent,Power Watts,Watt-Hours,Batt Volts,Batt Ampers,Batt State,Time to Empty,Current Step,Dist To Next (m),Next Speed (kn),Vehicle Speed (kn),Motor Speed CMD,Next Heading,Next Long,Next Lat,Next Depth (m),Depth Goal (m),Vehicle State,Error State,Distance to Track (m),Fin Pitch R,Fin Pitch L,Pitch Goal,Fin Yaw T,Fin Yaw B,Yaw Goal,Fin Roll,DVL-Depth (m),DVL -Altitude (m),DVL -Water Column (m),DVL-FixType,DVL-FixQuality,DVL-Temperature,Conductivity (mmhos/cm),Temperature (c),Salinity (ppt),Sound Speed (m/s),Date m/d/y   ,Time hh:mm:ss,Temp C,SpCond mS/cm,Sal ppt,Depth feet,pH,pH mV,Turbid+ NTU,Chl ug/L,BGA-PC cells/mL,ODOsat %,ODO mg/L,Battery volts,ROSEM Command Type
25.91279317,-80.13785767,17:37.3,11/16/22,6,2.556,309.06,-7.23198201,2.77,84.3,79.03,1.58,-2.31,32.6,0,2.61,2.61,98,22,525.3,16.4,-1.3,D,1610.7,0,5.438,2,0,128,141.98,-80.13782418,25.91275464,0,0,1,N,2.360971,67,67,11,5,5,267.5309,0,9999.99,2.63,2.757,2,9,30.3,0,30.39999962,47.8,1559.62423,11/16/22,11:49:51,28.08,69.95,47.8,1.227,8.27,-75.6,-2.1,-3.8,-2032,99.4,5.96,13.2,
25.91279833,-80.13785567,17:38.4,11/16/22,7,1.41,309.06,-7.23198201,1.53,84.5,79.22,2.4,-6.01,32.6,0,2.59,2.59,98,22,525.3,16.4,-1.3,D,1582.7,0,5.79,2,0,128,147.05,-80.13782418,25.91275464,0,0,1,N,2.964492,71,71,11,5,5,263.9987,0,9999.99,2.61,2.737,2,9,30.3,0,30.29999924,47.8,1559.4292,11/16/22,11:49:52,28.07,69.95,47.8,1.196,8.27,-75.6,-2.2,-5.6,-1681,99.4,5.95,13,
25.91280012,-80.13785626,17:39.4,11/16/22,7,0.926,309.06,-7.23198201,1.53,82,76.85,3.78,1.86,32.5,0.01,2.56,2.56,98,22,525.3,16.4,-1.3,D,1582.7,1,22.888,2,0.07,174,149.05,-80.13773856,25.9126236,0,0,1,N,0.2069548,77,77,11,250,250,148.7209,0,9999.99,2.58,2.707,2,9,30.3,0,30.29999924,47.69,1559.31485,11/16/22,11:49:54,28.09,69.81,47.69,1.2,8.27,-75.7,-0.9,-5.2,-1971,98.9,5.93,13.2,
25.91279698,-80.1378605,17:40.4,11/16/22,6,0.866,309.06,-7.23198201,2.4,85.2,79.89,1.05,-0.2,32.6,0.01,2.62,2.63,98,22,525.3,16.4,-1.3,D,1582.7,1,22.813,2,0.27,174,147.68,-80.13773856,25.9126236,0,0,1,N,0.7609712,63,63,11,250,250,146.4668,0,9999.99,2.63,2.757,2,9,30.3,0,30.29999924,47.69,1559.31485,11/16/22,11:49:54,28.09,69.81,47.69,1.2,8.27,-75.7,-0.9,-5.2,-1971,98.9,5.93,13.2,
25.91279801,-80.13785853,17:41.4,11/16/22,6,0.457,309.06,-7.23198201,2.4,89,83.48,1.4,6.3,32.6,0,2.63,2.64,98,38,525.2,16.4,-2.3,D,923.2,1,22.805,2,0.49,174,148.25,-80.13773856,25.9126236,0,0,1,N,0.5457841,67,67,11,250,250,147.3404,0,9999.99,2.65,2.777,2,9,30.2,0,30.29999924,48.13,1559.77447,11/16/22,11:49:55,28.09,70.37,48.13,1.206,8.27,-75.5,-2.8,-5.6,-769,98.6,5.9,13.2,
25.91280341,-80.13785208,17:42.4,11/16/22,6,0.576,309.06,-7.23198201,2.4,90.3,84.71,-0.85,8.9,32.5,0,2.78,2.78,98,38,525.2,16.4,-2.3,D,923.2,1,22.993,2,0.71,174,150.41,-80.13773856,25.9126236,0,0,1,N,0.3064324,49,49,11,250,250,150.7854,0,9999.99,2.77,2.895465,2,9,30.2,0,30.20000076,47.76,1559.192,11/16/22,11:49:57,28.01,69.9,47.76,1.233,8.28,-75.9,-3,-0.7,-1993,98.4,5.9,13.2,
25.91280149,-80.13784487,17:43.4,11/16/22,6,0.759,309.06,-7.23198201,1.53,89.6,84.05,4.05,-2.15,32.6,0.01,2.76,2.77,98,38,525.2,16.4,-2.3,D,923.2,1,22.457,2,0.83,174,151.74,-80.13773856,25.9126236,0,0,1,N,0.8116063,81,81,11,250,250,152.939,0,9999.99,2.8,2.925965,2,9,30.2,0,30.20000076,47.76,1559.192,11/16/22,11:49:57,28.01,69.9,47.76,1.233,8.28,-75.9,-3,-0.7,-1993,98.4,5.9,13.2,
25.91279665,-80.13783913,17:44.4,11/16/22,6,1.387,309.06,-7.23198201,1.53,94.3,88.47,2.04,4.24,32.5,0.01,2.98,3,98,38,525.2,16.4,-2.3,D,923.2,1,21.713,2,0.98,174,152.4,-80.13773856,25.9126236,0,0,1,N,1.022303,69,69,11,250,250,154.0615,0,9999.99,3,3.127,2,9,30.1,0,30.20000076,47.76,1559.19299,11/16/22,11:49:58,27.96,69.89,47.76,1.219,8.28,-75.9,-2.7,-6.4,649,98.4,5.91,13.3,
25.91279352,-80.13783126,17:45.4,11/16/22,6,1.087,309.06,-7.23198201,1.53,99.9,93.71,2.06,0.83,32.5,0.01,3.01,3.02,98,40,525.2,16.4,-2.4,D,894.1,1,21.046,2,1.08,174,153.86,-80.13773856,25.9126236,0,0,1,N,1.520752,69,69,11,250,250,156.6227,0,9999.99,3.03,3.157,2,9,30.1,0,30.10000038,47.59,1558.81859,11/16/22,11:50:00,27.89,69.68,47.59,1.198,8.28,-76.1,-2.4,-2,-650,98.1,5.9,13.1,
25.91281016,-80.13784264,17:46.4,11/16/22,7,2.546,309.06,-7.23198201,1.53,106.1,99.48,2.9,2.83,32.6,0.01,3.13,3.14,98,40,525.2,16.4,-2.4,D,894.1,1,23.209,2,1.2,174,153.35,-80.13773856,25.9126236,0,0,1,N,1.481762,74,74,11,250,250,155.3958,0,9999.99,3.16,3.287,2,9,30,0,30.10000038,47.59,1558.81859,11/16/22,11:50:00,27.89,69.68,47.59,1.198,8.28,-76.1,-2.4,-2,-650,98.1,5.9,13.1,
25.91281274,-80.13782802,17:47.4,11/16/22,7,1.315,309.06,-7.23198201,1.31,111.8,104.76,3.46,2.01,32.5,0.01,3.25,3.26,98,40,525.2,16.4,-2.4,D,894.1,1,22.856,2,1.27,174,156.95,-80.13773856,25.9126236,0,0,1,N,2.880391,78,78,11,250,250,161.1815,0,9999.99,3.28,3.407,2,9,30,0,30,47.7,1558.73666,11/16/22,11:50:01,27.89,69.82,47.7,1.195,8.28,-75.9,-3,-3.7,-2044,97.9,5.89,13.2,
25.91280591,-80.13781689,17:48.4,11/16/22,7,1.523,309.06,-7.23198201,1.31,120.3,112.62,3.86,2.53,32.5,0.01,3.45,3.46,98,38,525.2,16.4,-2.3,D,931,1,21.733,2,1.31,174,158.87,-80.13773856,25.9126236,0,0,1,N,3.461328,79,79,11,250,250,164.7257,0,9999.99,3.48,3.607,2,9,30,0,30,47.9,1558.94611,11/16/22,11:50:03,27.87,70.07,47.9,1.205,8.28,-76.4,-2.2,-2.5,-2278,97.3,5.85,13.3,
25.91279776,-80.13780905,17:49.4,11/16/22,7,1.445,309.06,-7.23198201,1.31,127.3,119.1,4.11,1.95,32.5,0.01,3.59,3.6,98,38,525.2,16.4,-2.3,D,931,1,20.609,2,1.32,174,160,-80.13773856,25.9126236,0,0,1,N,3.692705,82,82,11,250,250,167.2753,0,9999.99,3.62,3.747,2,9,29.9,0,29.89999962,47.84,1558.68584,11/16/22,11:50:04,27.84,69.99,47.84,1.202,8.28,-76.4,4,-0.4,-3075,97.2,5.84,13.1,
25.91279186,-80.13780075,17:50.4,11/16/22,8,1.523,34.12,-7.23198201,1.34,136,127.19,3.92,2.4,32.5,0.01,3.58,3.58,98,38,525.2,16.4,-2.3,D,931,1,19.717,2,1.33,176,161.61,-80.13773856,25.9126236,0,0,1,N,4.086797,81,81,11,250,250,170.7304,0,9999.99,3.61,3.737,2,9,29.9,0,29.89999962,47.84,1558.68584,11/16/22,11:50:04,27.84,69.99,47.84,1.202,8.28,-76.4,4,-0.4,-3075,97.2,5.84,13.1,
25.91278621,-80.13779351,17:51.4,11/16/22,8,1.464,69.72,-7.23198201,1.31,143.9,134.59,4.55,2.87,32.5,0.01,3.57,3.58,98,38,525.2,16.4,-2.3,D,931,1,18.898,2,1.35,178,163.09,-80.13773856,25.9126236,0,0,1,N,4.399598,84,84,11,250,250,174.1213,0,9999.99,3.61,3.737,2,9,29.8,0,29.89999962,47.92,1558.76946,11/16/22,11:50:05,27.82,70.09,47.92,1.197,8.28,-76.4,-3.9,-4.6,-4303,96.9,5.83,13.2,
25.91278108,-80.13778625,17:52.4,11/16/22,8,1.439,90.56,-7.23198201,1.31,154.5,144.64,3.97,2.98,32.5,0.01,3.56,3.57,98,41,525.2,16.4,-2.5,D,866,1,18.149,2,1.39,179,164.76,-80.13773856,25.9126236,0,0,1,N,4.748941,81,81,11,250,250,178.0862,0,9999.99,3.6,3.727,2,9,29.8,0,29.79999924,47.98,1558.63426,11/16/22,11:50:07,27.81,70.18,47.98,1.206,8.29,-76.7,-2.8,-2.3,-167,96.4,5.79,13.1,
25.91277292,-80.13778173,17:53.4,11/16/22,8,1.359,108.34,-7.23198201,1.31,164.2,153.99,4.28,3.09,32.5,0.01,3.56,3.57,98,41,525.2,16.4,-2.5,D,866,1,17.156,2,1.43,181,165.42,-80.13773856,25.9126236,0,0,1,N,4.696106,83,83,11,231,231,179.9516,0,9999.99,3.6,3.727,2,9,29.8,0,29.79999924,47.98,1558.63426,11/16/22,11:50:07,27.81,70.18,47.98,1.206,8.29,-76.7,-2.8,-2.3,-167,96.4,5.79,13.1,
25.91276431,-80.13777853,17:54.4,11/16/22,8,1.443,126.7,-7.23198201,1.31,173.9,163.51,4.13,2.34,32.6,0,3.47,3.48,98,41,525.2,16.4,-2.5,D,866,1,16.15,2,1.45,182,165.67,-80.13773856,25.9126236,0,0,1,N,4.506341,82,82,11,189,189,178.9511,0,9999.99,3.51,3.637,2,9,29.7,0,29.79999924,47.77,1558.41398,11/16/22,11:50:08,27.8,69.9,47.77,1.19,8.29,-76.6,-3.5,-2.3,-1269,96.4,5.8,13,
25.91275339,-80.13777944,17:55.4,11/16/22,8,1.481,145.15,-7.23198201,1,179.5,169.09,4.72,0.43,32.5,0,3.39,3.39,98,48,525.2,16.4,-2.9,D,735.4,1,15,2,1.57,183,164.18,-80.13773856,25.9126236,0,0,1,N,3.823848,85,85,11,151,151,175.105,0,9999.99,3.42,3.547,2,9,29.7,0,29.70000076,47.53,1557.96364,11/16/22,11:50:09,27.8,69.6,47.53,1.2,8.28,-76.4,-3.2,-4.1,-2240,96.5,5.82,13.1,
25.91274345,-80.13777946,17:56.4,11/16/22,8,1.641,162.23,-7.23198201,1.31,183,172.6,3.42,1.76,32.6,0,3.38,3.39,98,48,525.2,16.4,-2.9,D,735.4,1,13.94,2,1.68,183,162.93,-80.13773856,25.9126236,0,0,1,N,3.264627,78,78,11,124,124,171.7557,0,9999.99,3.42,3.547,2,9,29.6,0,29.70000076,47.43,1557.85882,11/16/22,11:50:10,27.76,69.47,47.43,1.186,8.28,-76.4,-2.4,-1.2,-1458,96.2,5.81,13.2,
25.91273439,-80.13777892,17:57.4,11/16/22,7,1.514,166.08,-7.23198201,1.3,184.3,173.91,1.79,3.63,32.6,0,3.35,3.35,98,48,525.2,16.4,-2.9,D,735.4,1,12.964,2,1.79,184,161.86,-80.13773856,25.9126236,0,0,1,N,2.804988,68,68,11,107,107,168.8795,0,9999.99,3.38,3.507,2,9,29.6,0,29.60000038,47.63,1557.86872,11/16/22,11:50:12,27.74,69.73,47.63,1.209,8.28,-76.2,-2.3,-7.4,-2002,96,5.79,13.1,
25.91272678,-80.13777822,17:58.4,11/16/22,7,1.566,170.84,-7.23198201,1.3,182.1,171.7,1.61,5.88,32.6,0,3.33,3.33,98,48,525.2,16.4,-2.9,D,735.4,1,12.14,2,1.88,184,160.93,-80.13773856,25.9126236,0,0,1,N,2.443113,67,67,11,105,105,166.5396,0,9999.99,3.34,3.467,2,9,29.6,0,29.60000038,47.63,1557.86872,11/16/22,11:50:12,27.74,69.73,47.63,1.209,8.28,-76.2,-2.3,-7.4,-2002,96,5.79,13.1,
25.91271768,-80.1377787,17:59.4,11/16/22,7,1.989,178.24,-7.23198201,1.3,179.5,169.09,2.45,6.16,32.6,0,3.29,3.29,98,50,525.1,16.4,-3,D,708.5,1,11.205,2,1.94,184,159,-80.13773856,25.9126236,0,0,1,N,1.891071,72,72,11,102,102,162.8569,0,9999.99,3.3,3.427,2,9,29.6,0,29.60000038,47.5,1557.73224,11/16/22,11:50:13,27.75,69.56,47.5,1.236,8.28,-76.4,-3.1,-1.5,-2987,95.8,5.78,13.2,
25.91270799,-80.13777912,18:00.4,11/16/22,7,1.972,179.5,-7.23198201,1.3,177.4,166.99,2.18,6.54,32.7,0,3.25,3.25,98,50,525.1,16.4,-3,D,708.5,1,10.223,2,1.99,184,156.62,-80.13773856,25.9126236,0,0,1,N,1.294925,70,70,11,94,94,158.7514,0,9999.99,3.26,3.387,2,9,29.6,0,29.60000038,47.7,1557.94207,11/16/22,11:50:15,27.77,69.82,47.7,1.24,8.29,-76.5,-2.1,-3.2,-3763,95.5,5.75,13.2,
25.91269738,-80.13778,18:01.4,11/16/22,8,1.843,179.44,-7.23198201,1.3,175.2,164.8,2.34,5.43,32.7,0,3.19,3.19,98,50,525.1,16.4,-3,D,708.5,1,9.192,2,2.01,184,153.2,-80.13773856,25.9126236,0,0,1,N,0.6159858,71,71,11,84,84,153.9603,0,9999.99,3.2,3.327,2,9,29.5,0,29.60000038,47.7,1557.94207,11/16/22,11:50:15,27.77,69.82,47.7,1.24,8.29,-76.5,-2.1,-3.2,-3763,95.5,5.75,13.2,
25.91268807,-80.13778004,18:02.4,11/16/22,7,1.789,177.44,-7.23198201,2.08,172.6,162.23,1.56,3.91,32.6,0,3.14,3.14,98,50,525.1,16.4,-3,D,708,1,8.282,2,2.04,184,149.94,-80.13773856,25.9126236,0,0,1,N,8.68E-02,66,66,11,79,79,150.1793,0,9999.99,3.16,3.287,2,9,29.5,0,29.5,47.27,1557.29071,11/16/22,11:50:16,27.77,69.26,47.27,1.235,8.29,-76.6,-3.4,-0.8,-2670,95.5,5.77,13.1,
25.91267716,-80.13777941,18:03.4,11/16/22,8,2.103,175.44,-7.23198201,2.08,168.6,158.29,1.76,4.25,32.6,0,3.08,3.08,98,50,525.1,16.4,-3,D,708,1,7.223,2,2.06,184,145.55,-80.13773856,25.9126236,0,0,1,N,0.4804447,67,67,11,79,79,146.1206,0,9999.99,3.1,3.227,2,9,29.5,0,29.5,47.12,1557.13324,11/16/22,11:50:18,27.74,69.07,47.12,1.225,8.29,-76.7,-3.1,-5.6,-285,95.8,5.79,13.2,
25.91266684,-80.13777723,18:04.4,11/16/22,8,2.249,173.16,-7.23198201,1.4,163.8,153.61,2.06,7.15,32.6,0,3.07,3.07,98,51,525.1,16.4,-3.1,D,691.3,1,6.171,2,2.17,184,141.19,-80.13773856,25.9126236,0,0,1,N,0.8918105,67,67,11,84,84,143.1968,0,9999.99,3.08,3.207,2,9,29.5,0,29.5,47.12,1557.13324,11/16/22,11:50:18,27.74,69.07,47.12,1.225,8.29,-76.7,-3.1,-5.6,-285,95.8,5.79,13.2,
25.91265574,-80.13777479,18:05.4,11/16/22,7,1.91,169.63,-7.23198201,1.4,159.8,149.73,2.21,7.54,32.6,0,3.05,3.05,98,51,525.1,16.4,-3.1,D,691.3,2,21.989,2,2.08,184,139.9,-80.13763318,25.91250447,0,0,1,N,0.5936634,70,70,11,84,84,138.9486,0,9999.99,3.07,3.197,2,9,29.4,0,29.5,47.24,1557.25919,11/16/22,11:50:19,27.74,69.22,47.24,1.231,8.29,-76.5,-3.5,-2,-1958,95.9,5.79,13.2,
25.91264763,-80.13777235,18:06.4,11/16/22,7,1.918,166.48,-7.23198201,1.4,155.2,145.31,1.82,6.21,32.7,0,3.11,3.11,98,51,525.1,16.4,-3.1,D,691.3,2,21.146,2,2.01,184,138.83,-80.13763318,25.91250447,0,0,1,N,0.9751608,68,68,11,94,94,137.0254,0,9999.99,3.13,3.257,2,9,29.4,0,29.39999962,47.17,1556.98474,11/16/22,11:50:21,27.79,69.14,47.17,1.209,8.28,-76.3,-2.5,-4.9,-333,95.7,5.78,13.3,
25.91263999,-80.137769,18:07.4,11/16/22,7,2.018,163.66,-7.23198201,1.41,151.2,141.49,1.1,7.72,32.7,0,3.12,3.12,98,51,525.1,16.4,-3.1,D,691.3,2,20.288,2,2.02,184,137.97,-80.13763318,25.91250447,0,0,1,N,1.247772,64,64,11,101,101,135.3372,0,9999.99,3.13,3.257,2,9,29.4,0,29.39999962,47.17,1556.98474,11/16/22,11:50:21,27.79,69.14,47.17,1.209,8.28,-76.3,-2.5,-4.9,-333,95.7,5.78,13.3,
25.91263146,-80.13776435,18:08.4,11/16/22,8,2.167,160.58,-7.23198201,1.41,147.2,137.7,1.95,8.7,32.6,0,3.13,3.13,98,59,525.1,16.4,-3.6,D,599.7,2,19.275,2,1.91,184,137.11,-80.13763318,25.91250447,0,0,1,N,1.477221,67,67,11,108,108,133.4843,0,9999.99,3.15,3.277,2,9,29.4,0,29.39999962,46.9,1556.70115,11/16/22,11:50:23,27.8,68.79,46.9,1.215,8.29,-76.5,-2.1,-4.7,-1981,95.7,5.79,13.2,
25.91262354,-80.13775974,18:09.4,11/16/22,8,1.997,157.34,-7.23198201,1.41,144.6,135.25,1.74,7.81,32.7,0,3.14,3.14,98,59,525.1,16.4,-3.6,D,599.7,2,18.316,2,1.94,184,136.29,-80.13763318,25.91250447,0,0,1,N,1.671768,65,65,11,108,108,131.518,0,9999.99,3.15,3.277,2,9,29.4,0,29.39999962,46.9,1556.70115,11/16/22,11:50:23,27.8,68.79,46.9,1.215,8.29,-76.5,-2.1,-4.7,-1981,95.7,5.79,13.2,
25.91261583,-80.1377539,18:10.4,11/16/22,8,1.887,151.95,-7.23198201,1.41,142,132.8,1.79,7.99,32.7,0,3.16,3.17,98,59,525.1,16.4,-3.6,D,599.7,2,17.295,2,1.96,184,135.72,-80.13763318,25.91250447,0,0,1,N,1.758079,68,68,11,115,115,129.7053,0,9999.99,3.18,3.307,2,9,29.4,0,29.39999962,46.51,1556.29161,11/16/22,11:50:24,27.78,68.29,46.51,1.205,8.29,-76.7,-3,-4.9,-4382,95.8,5.81,13.1,
25.91260867,-80.1377475,18:11.4,11/16/22,8,1.977,148.6,-7.23198201,1,139.5,130.46,1.37,7.53,32.6,0,3.22,3.22,98,58,525,16.4,-3.5,D,612.7,2,16.278,2,1.93,184,135.38,-80.13763318,25.91250447,0,0,1,N,1.755491,68,68,11,125,125,129.1166,0,9999.99,3.24,3.367,2,9,29.3,0,29.29999924,46.92,1556.52041,11/16/22,11:50:26,27.73,68.81,46.92,1.212,8.28,-76.3,-3.3,0.1,-1883,95.9,5.81,13.2,
25.91260202,-80.13774125,18:12.4,11/16/22,8,2.011,146.92,-7.23198201,1,137.4,128.49,0.92,7.88,32.7,0,3.24,3.24,98,58,525,16.4,-3.5,D,612.7,2,15.313,2,1.94,184,135.1,-80.13763318,25.91250447,0,0,1,N,1.737495,63,63,11,130,130,129.2408,0,9999.99,3.25,3.377,2,9,29.3,0,29.29999924,46.92,1556.52041,11/16/22,11:50:26,27.73,68.81,46.92,1.212,8.28,-76.3,-3.3,0.1,-1883,95.9,5.81,13.2,
25.91259467,-80.13773466,18:13.4,11/16/22,8,1.935,145.26,-7.23198201,1,137.7,128.77,0.85,7.36,32.6,0,3.27,3.27,98,58,525,16.4,-3.5,D,612.7,2,14.269,2,1.92,184,134.66,-80.13763318,25.91250447,0,0,1,N,1.725868,62,62,11,129,129,129.3187,0,9999.99,3.28,3.407,2,9,29.3,0,29.29999924,46.85,1556.44681,11/16/22,11:50:27,27.73,68.73,46.85,1.231,8.28,-76.3,-3.7,-7.6,-3062,96,5.82,13.2,
25.91258771,-80.13772866,18:14.4,11/16/22,8,1.86,139.68,-7.23198201,1,136.6,127.75,1.14,6.74,32.6,0,3.3,3.3,98,58,525,16.4,-3.5,D,612.7,2,13.299,2,1.91,184,134.1,-80.13763318,25.91250447,0,0,1,N,1.736582,64,64,11,133,133,129.2453,0,9999.99,3.31,3.437,2,9,29.3,0,29.29999924,46.87,1556.46783,11/16/22,11:50:29,27.75,68.75,46.87,1.21,8.28,-76.4,-3.3,-6.9,-1304,96.2,5.82,13.2,
25.91258122,-80.13772212,18:15.4,11/16/22,8,1.88,134.56,-7.23198201,1,135.7,126.91,1.59,7.02,32.6,0,3.33,3.33,98,58,525,16.3,-3.5,D,616.8,2,12.328,2,1.91,184,133.81,-80.13763318,25.91250447,0,0,1,N,1.675991,68,68,11,140,140,129.6603,0,9999.99,3.34,3.467,2,9,29.3,0,29.29999924,46.87,1556.46783,11/16/22,11:50:29,27.75,68.75,46.87,1.21,8.28,-76.4,-3.3,-6.9,-1304,96.2,5.82,13.2,
25.91257457,-80.13771405,18:16.4,11/16/22,8,1.917,133.32,-7.23198201,1,135.5,126.72,1.68,7.07,32.6,0,3.23,3.23,98,58,525,16.3,-3.5,D,616.8,2,11.233,2,1.91,184,133.94,-80.13763318,25.91250447,0,0,1,N,1.509365,67,67,11,143,143,130.8083,0,9999.99,3.25,3.377,2,9,29.3,0,29.29999924,46.76,1556.35228,11/16/22,11:50:30,27.76,68.61,46.76,1.201,8.28,-76.4,-2.7,-3.7,-2118,96.1,5.82,13.3,
25.91256858,-80.1377067,18:17.4,11/16/22,8,1.947,133.22,-7.23198201,1,136.3,127.47,1.72,6.71,32.6,0,3.26,3.26,98,58,525,16.3,-3.5,D,616.8,2,10.242,2,1.92,184,134.11,-80.13763318,25.91250447,0,0,1,N,1.349648,67,67,11,145,145,131.917,0,9999.99,3.28,3.407,2,9,29.3,0,29.29999924,46.09,1555.64826,11/16/22,11:50:32,27.76,67.75,46.09,1.212,8.28,-76.4,-2.3,-1.8,-4224,95.9,5.83,13.1,
25.91256325,-80.1377001,18:18.4,11/16/22,8,1.879,130.43,-7.23198201,1,137.2,128.31,1.78,6.77,32.6,0,3.28,3.28,98,58,525,16.3,-3.5,D,614,2,9.355,2,1.9,184,134.32,-80.13763318,25.91250447,0,0,1,N,1.194879,67,67,11,146,146,132.9976,0,9999.99,3.3,3.427,2,9,29.3,0,29.29999924,46.09,1555.64826,11/16/22,11:50:32,27.76,67.75,46.09,1.212,8.28,-76.4,-2.3,-1.8,-4224,95.9,5.83,13.1,
25.91255652,-80.13769263,18:19.4,11/16/22,8,1.871,128.32,-7.23198201,1,137.6,128.68,2.25,6.18,32.6,0,3.4,3.4,98,58,525,16.3,-3.5,D,614,2,8.299,2,1.9,184,134.23,-80.13763318,25.91250447,0,0,1,N,1.078032,68,68,11,148,148,133.8183,0,9999.99,3.41,3.537,2,9,29.2,0,29.29999924,46.24,1555.80601,11/16/22,11:50:33,27.75,67.95,46.24,1.191,8.29,-76.7,-3.6,-3.1,-4892,96,5.83,13.1,
25.91254925,-80.13768574,18:20.4,11/16/22,8,1.9,129.84,-7.23198201,1,137.8,128.87,2.87,6.02,32.6,0,3.45,3.46,98,58,525,16.3,-3.5,D,614,2,7.241,2,1.9,184,133.45,-80.13763318,25.91250447,0,0,1,N,1.041595,72,72,11,149,149,134.0746,0,9999.99,3.47,3.597,2,9,29.2,0,29.20000076,46.19,1555.55064,11/16/22,11:50:34,27.73,67.88,46.19,1.191,8.29,-76.8,-4,-1.1,-1873,95.8,5.82,13.2,
25.9125429,-80.13767897,18:21.4,11/16/22,8,1.966,133.64,-7.23198201,1,138.4,129.43,3.08,7.04,32.6,0,3.52,3.52,98,58,525,16.3,-3.5,D,614,2,6.264,2,1.89,184,133.02,-80.13763318,25.91250447,0,0,1,N,0.9462208,75,75,11,148,148,134.7477,0,9999.99,3.54,3.667,2,9,29.2,0,29.20000076,46.41,1555.78193,11/16/22,11:50:36,27.71,68.16,46.41,1.18,8.29,-76.5,-4.3,-2.3,-1825,95.6,5.81,13,
25.9125354,-80.1376721,18:22.4,11/16/22,8,2.032,136.54,-7.23198201,1,141.3,132.14,2.24,4.88,32.6,0,3.44,3.45,98,58,524.9,16.3,-3.5,D,614.3,2,5.194,2,1.89,184,131.46,-80.13763318,25.91250447,0,0,1,N,0.9223194,70,70,11,138,138,134.9165,0,9999.99,3.47,3.597,2,9,29.2,0,29.20000076,46.41,1555.78193,11/16/22,11:50:36,27.71,68.16,46.41,1.18,8.29,-76.5,-4.3,-2.3,-1825,95.6,5.81,13,
25.91252963,-80.13766473,18:23.4,11/16/22,8,1.86,133.01,-7.23198201,1,143.6,134.3,1.81,6.85,32.6,0,3.47,3.47,98,58,524.9,16.3,-3.5,D,614.3,3,24.349,2,1.89,184,151.23,-80.13754756,25.91233769,0,0,1,N,1.737399,68,68,11,179,179,147.3609,0,9999.99,3.49,3.617,2,9,29.2,0,29.20000076,46.36,1555.72939,11/16/22,11:50:37,27.7,68.09,46.36,1.187,8.29,-76.4,-2.5,-3.8,-1890,95.6,5.81,13.2,
25.91252223,-80.13765833,18:24.4,11/16/22,8,1.908,132.78,-7.23198201,1,146.6,137.13,2.45,6.12,32.6,0,3.39,3.39,98,58,524.9,16.3,-3.5,D,613.7,3,23.32,2,1.88,184,151.64,-80.13754756,25.91233769,0,0,1,N,1.49571,72,72,11,170,170,147.7783,0,9999.99,3.41,3.537,2,9,29.2,0,29.20000076,46.26,1555.62413,11/16/22,11:50:39,27.71,67.97,46.26,1.19,8.29,-76.7,-4,-0.8,-2437,95.6,5.81,13.2,
25.91251566,-80.13765199,18:25.4,11/16/22,8,1.914,136.72,-7.23198201,1,150.5,140.83,3.09,4.33,32.7,0,3.54,3.54,98,58,524.9,16.3,-3.5,D,613.7,3,22.377,2,1.85,184,152.17,-80.13754756,25.91233769,0,0,1,N,1.214845,76,76,11,158,158,148.5418,0,9999.99,3.56,3.687,2,9,29.2,0,29.20000076,46.26,1555.62413,11/16/22,11:50:39,27.71,67.97,46.26,1.19,8.29,-76.7,-4,-0.8,-2437,95.6,5.81,13.2,
25.91250887,-80.1376475,18:26.4,11/16/22,8,1.875,141.78,-7.23198201,1,155.5,145.6,3.76,3.76,32.7,0.01,3.51,3.52,98,58,524.9,16.3,-3.5,D,613.7,3,21.5,2,1.85,185,152.29,-80.13754756,25.91233769,0,0,1,N,1.114489,78,78,11,138,138,148.4437,0,9999.99,3.54,3.667,2,9,29.2,0,29.20000076,46.24,1555.60343,11/16/22,11:50:40,27.73,67.94,46.24,1.197,8.29,-76.7,-3.6,-4.8,-3783,95.7,5.81,13.1,
25.91250139,-80.13764208,18:27.4,11/16/22,8,1.744,142.22,-7.23198201,1,157.6,147.61,3.14,4.15,32.7,0.01,3.45,3.45,98,61,524.9,16.3,-3.7,D,583.8,3,20.511,2,1.83,185,152.56,-80.13754756,25.91233769,0,0,1,N,0.963387,78,78,11,133,133,148.5334,0,9999.99,3.48,3.607,2,9,29.2,0,29.20000076,46.41,1555.78231,11/16/22,11:50:42,27.76,68.17,46.41,1.192,8.29,-76.8,-3.7,-6,-703,95.5,5.8,13.3,
25.91249366,-80.13763858,18:28.4,11/16/22,8,1.82,146.1,-7.23198201,1,159.5,149.44,2.04,4.74,32.7,0,3.59,3.59,98,61,524.9,16.3,-3.7,D,583.8,3,19.587,2,1.89,185,152.31,-80.13754756,25.91233769,0,0,1,N,1.005229,69,69,11,121,121,148.0539,0,9999.99,3.61,3.737,2,9,29.2,0,29.20000076,46.41,1555.78231,11/16/22,11:50:42,27.76,68.17,46.41,1.192,8.29,-76.8,-3.7,-6,-703,95.5,5.8,13.3,
25.91248605,-80.13763251,18:29.4,11/16/22,8,1.772,147.19,-7.23198201,1.3,158.9,148.86,1.87,6.68,32.7,0,3.59,3.59,98,61,524.9,16.3,-3.7,D,583.8,3,18.556,2,1.91,185,152.75,-80.13754756,25.91233769,0,0,1,N,0.8092706,68,68,11,129,129,149.4386,0,9999.99,3.61,3.737,2,9,29.1,0,29.20000076,46.16,1555.5188,11/16/22,11:50:43,27.76,67.85,46.16,1.206,8.29,-76.9,-3.4,-3.5,-3048,95.6,5.81,13.2,
25.91247871,-80.13762776,18:30.4,11/16/22,7,1.847,149.78,-7.23198201,1.3,159.3,149.25,1.79,6.89,32.7,0,3.59,3.59,98,61,524.9,16.3,-3.7,D,583.8,3,17.613,2,1.95,185,152.91,-80.13754756,25.91233769,0,0,1,N,0.7248554,66,66,11,131,131,150.0371,0,9999.99,3.6,3.727,2,9,29.1,0,29.10000038,46.24,1555.39938,11/16/22,11:50:45,27.77,67.95,46.24,1.224,8.29,-76.7,-4.2,1.4,-2299,95.5,5.8,13.3,
25.91247036,-80.13762399,18:31.4,11/16/22,8,1.754,151.73,-7.23198201,1.3,158.3,148.29,1.68,7.52,32.7,0,3.59,3.59,98,60,524.9,16.3,-3.7,D,587.8,3,16.615,2,2,185,152.61,-80.13754756,25.91233769,0,0,1,N,0.7716831,67,67,11,133,133,149.7047,0,9999.99,3.61,3.737,2,9,29.1,0,29.10000038,46.24,1555.39938,11/16/22,11:50:45,27.77,67.95,46.24,1.224,8.29,-76.7,-4.2,1.4,-2299,95.5,5.8,13.3,
25.91246255,-80.13762117,18:32.4,11/16/22,8,1.702,151.99,-7.23198201,1.3,159.3,149.25,1.88,7.44,32.7,0,3.59,3.59,98,60,524.9,16.3,-3.7,D,587.8,3,15.716,2,1.99,185,152.07,-80.13754756,25.91233769,0,0,1,N,0.8738645,68,68,11,126,126,148.9806,0,9999.99,3.61,3.737,2,9,29.1,0,29.10000038,46,1555.14685,11/16/22,11:50:46,27.76,67.63,46,1.213,8.29,-76.6,-3.8,1.7,-1894,95.6,5.81,13.2,
25.91245371,-80.13761691,18:33.4,11/16/22,6,1.921,154.7,-7.23198201,2.08,158.8,148.77,2.53,7.73,32.7,0,3.59,3.59,98,60,524.9,16.3,-3.7,D,587.8,3,14.647,2,1.92,185,151.74,-80.13754756,25.91233769,0,0,1,N,0.9007448,72,72,11,127,127,148.7903,0,9999.99,3.61,3.737,2,9,29.1,0,29.10000038,45.85,1554.98903,11/16/22,11:50:48,27.77,67.45,45.85,1.209,8.29,-76.8,-3.6,-6.8,-2180,95.8,5.83,13,
25.91244589,-80.13761299,18:34.4,11/16/22,6,2.004,156.11,-7.23198201,2.08,159,148.96,1.9,7.64,32.7,0,3.59,3.59,98,61,524.8,16.3,-3.7,D,584.5,3,13.696,2,1.95,185,151.46,-80.13754756,25.91233769,0,0,1,N,0.9107286,68,68,11,126,126,148.7198,0,9999.99,3.61,3.737,2,9,29.1,0,29.10000038,45.85,1554.98903,11/16/22,11:50:48,27.77,67.45,45.85,1.209,8.29,-76.8,-3.6,-6.8,-2180,95.8,5.83,13,
25.9124374,-80.13760924,18:35.5,11/16/22,6,1.997,156.68,-7.23198201,2.08,158.3,148.29,2.25,7.35,32.6,0,3.58,3.58,98,61,524.8,16.3,-3.7,D,584.5,3,12.688,2,1.94,185,150.91,-80.13754756,25.91233769,0,0,1,N,0.9652183,71,71,11,127,127,148.3349,0,9999.99,3.6,3.727,2,9,29.1,0,29.10000038,45.83,1554.96805,11/16/22,11:50:49,27.77,67.42,45.83,1.216,8.29,-76.8,-4.1,-0.9,-2910,95.5,5.82,13.3,
25.91242878,-80.1376048,18:36.5,11/16/22,7,1.903,155.51,-7.23198201,2.08,158,148,2.35,7.67,32.7,0,3.58,3.58,98,61,524.8,16.3,-3.7,D,584.5,3,11.635,2,1.96,185,150.53,-80.13754756,25.91233769,0,0,1,N,0.9642802,71,71,11,128,128,148.3416,0,9999.99,3.6,3.727,2,9,29.1,0,29.10000038,45.83,1554.96802,11/16/22,11:50:51,27.77,67.42,45.83,1.209,8.29,-76.9,-3.1,-4.6,-959,95.5,5.82,13.2,
25.91242057,-80.13760103,18:37.5,11/16/22,6,1.914,154.56,-7.23198201,2.08,158.9,148.86,1.97,6.32,32.7,0,3.58,3.58,98,61,524.8,16.3,-3.7,D,584.5,3,10.655,2,1.98,185,149.87,-80.13754756,25.91233769,0,0,1,N,1.006666,71,71,11,127,127,148.0426,0,9999.99,3.6,3.727,2,9,29.1,0,29.10000038,45.83,1554.96802,11/16/22,11:50:51,27.77,67.42,45.83,1.209,8.29,-76.9,-3.1,-4.6,-959,95.5,5.82,13.2,
25.91241086,-80.13759583,18:38.5,11/16/22,6,2.082,155.52,-7.23198201,2.08,157.1,147.13,2.12,8,32.8,0,3.59,3.59,98,61,524.8,16.3,-3.7,D,584.5,3,9.461,2,1.96,185,149.32,-80.13754756,25.91233769,0,0,1,N,0.988642,70,70,11,131,131,148.1696,0,9999.99,3.61,3.737,2,9,29.1,0,29.10000038,45.82,1554.95749,11/16/22,11:50:52,27.77,67.4,45.82,1.198,8.29,-76.8,-3.8,-3.1,-3077,95.7,5.82,13.1,
25.91240389,-80.13759163,18:39.5,11/16/22,6,1.981,155.19,-7.23198201,2.08,158,148,2.08,7.42,32.7,0,3.6,3.6,98,61,524.8,16.3,-3.7,D,584.5,3,8.58,2,1.98,185,149.09,-80.13754756,25.91233769,0,0,1,N,0.9301698,69,69,11,129,129,148.5825,0,9999.99,3.62,3.747,2,9,29.1,0,29.10000038,45.7,1554.83126,11/16/22,11:50:54,27.75,67.26,45.7,1.204,8.29,-76.7,-4,-0.8,-2107,95.9,5.84,13.3,
25.91239518,-80.13758687,18:40.6,11/16/22,6,1.856,154.46,-7.23198201,2.08,157.8,147.8,2.36,7,32.8,0,3.59,3.59,98,61,524.8,16.3,-3.7,D,584.5,3,7.505,2,1.96,185,148.41,-80.13754756,25.91233769,0,0,1,N,0.9078763,71,71,11,131,131,148.7403,0,9999.99,3.61,3.737,2,9,29.1,0,29.10000038,45.7,1554.83126,11/16/22,11:50:54,27.75,67.26,45.7,1.204,8.29,-76.7,-4,-0.8,-2107,95.9,5.84,13.3,
25.9123874,-80.1375826,18:41.6,11/16/22,6,1.77,152.74,-7.23198201,2.08,157.1,147.13,2.17,7.69,32.8,0,3.58,3.58,98,61,524.8,16.3,-3.7,D,583.7,3,6.544,2,1.95,185,147.62,-80.13754756,25.91233769,0,0,1,N,0.883772,70,70,11,134,134,148.9103,0,9999.99,3.6,3.727,2,9,29.1,0,29.10000038,45.62,1554.74716,11/16/22,11:50:55,27.75,67.15,45.62,1.189,8.29,-76.5,-4,-6,-4217,95.7,5.83,13.2,
25.9123798,-80.13757792,18:42.5,11/16/22,7,1.923,152.61,-7.23198201,2.08,156.3,146.36,2.12,7.6,32.7,0,3.58,3.58,98,61,524.8,16.3,-3.7,D,583.7,4,25.208,2,1.94,185,147.42,-80.13744218,25.91218878,0,0,1,N,5.20E-02,70,70,11,131,131,147.3145,0,9999.99,3.6,3.727,2,9,29.1,0,29.10000038,45.56,1554.68403,11/16/22,11:50:56,27.74,67.07,45.56,1.183,8.29,-76.8,-4,-3.6,865,95.7,5.84,13.1,
25.91237197,-80.13757357,18:43.6,11/16/22,7,1.971,154.24,-7.23198201,2.08,157.5,147.52,1.91,6.47,32.8,0,3.59,3.59,98,61,524.8,16.3,-3.7,D,583.7,4,24.241,2,1.95,185,147.17,-80.13744218,25.91218878,0,0,1,N,0.1491576,68,68,11,124,124,146.8801,0,9999.99,3.61,3.737,2,9,29.1,0,29.10000038,45.45,1554.56824,11/16/22,11:50:57,27.73,66.93,45.45,1.202,8.29,-76.8,-4.5,-7.5,-3082,95.9,5.85,13.2,
25.91236408,-80.13756917,18:44.6,11/16/22,7,1.987,154.4,-7.23198201,1.41,157,147.04,2.28,7.66,32.8,0,3.6,3.6,98,61,524.8,16.3,-3.7,D,583.7,4,23.265,2,1.98,185,146.91,-80.13744218,25.91218878,0,0,1,N,0.2519892,71,71,11,124,124,146.3452,0,9999.99,3.62,3.747,2,9,29.1,0,29.10000038,45.32,1554.43149,11/16/22,11:50:59,27.71,66.76,45.32,1.193,8.29,-77,-4.3,-4,-2840,96.3,5.88,13.1,
25.9123577,-80.13756435,18:45.6,11/16/22,7,1.863,152.56,-7.23198201,1.41,156.7,146.75,2.02,7.19,32.8,0,3.6,3.6,98,60,524.7,16.3,-3.7,D,587.6,4,22.408,2,1.96,185,146.96,-80.13744218,25.91218878,0,0,1,N,0.2269504,72,72,11,127,127,146.3734,0,9999.99,3.62,3.747,2,9,29,0,29,45.33,1554.23723,11/16/22,11:51:00,27.7,66.78,45.33,1.196,8.29,-76.7,-3.7,-1.6,-354,96.5,5.9,13.2,
25.91234825,-80.13755872,18:46.6,11/16/22,7,1.97,153.38,-7.23198201,1.41,156.9,146.94,2.29,6.77,32.7,0,3.57,3.57,98,60,524.7,16.3,-3.7,D,587.6,4,21.22,2,1.96,185,146.68,-80.13744218,25.91218878,0,0,1,N,0.3152072,71,71,11,122,122,145.7113,0,9999.99,3.59,3.717,2,9,29,0,29,45.33,1554.23723,11/16/22,11:51:00,27.7,66.78,45.33,1.196,8.29,-76.7,-3.7,-1.6,-354,96.5,5.9,13.2,
25.91234201,-80.13755358,18:47.6,11/16/22,7,1.991,153.04,-7.23198201,2.08,156.2,146.27,2.09,7.22,32.8,0,3.6,3.6,98,60,524.7,16.3,-3.7,D,587.6,4,20.358,2,1.95,185,146.82,-80.13744218,25.91218878,0,0,1,N,0.2548203,70,70,11,126,126,145.8972,0,9999.99,3.62,3.747,2,9,29,0,29,45.25,1554.15305,11/16/22,11:51:01,27.71,66.67,45.25,1.204,8.29,-76.8,-4.1,-2.1,-1197,96.3,5.88,13.1,
25.91233398,-80.13754906,18:48.6,11/16/22,7,2.029,154.84,-7.23198201,2.08,155.6,145.69,2.28,7.33,32.8,0,3.59,3.59,98,60,524.7,16.3,-3.7,D,587.6,4,19.364,2,1.99,185,146.49,-80.13744218,25.91218878,0,0,1,N,0.3538692,71,71,11,124,124,144.9944,0,9999.99,3.61,3.737,2,9,29,0,29,44.87,1553.75298,11/16/22,11:51:03,27.73,66.18,44.87,1.187,8.29,-76.9,-3.4,-2.7,-2764,96.1,5.89,13.2,
25.91232504,-80.1375445,18:49.6,11/16/22,7,1.75,152.53,-7.23198201,1.41,154.6,144.74,2.34,7.47,32.8,0,3.58,3.58,98,61,524.7,16.3,-3.7,D,583.1,4,18.284,2,1.97,185,145.96,-80.13744218,25.91218878,0,0,1,N,0.5061414,71,71,11,124,124,143.9026,0,9999.99,3.6,3.727,2,9,29,0,29,44.87,1553.75298,11/16/22,11:51:03,27.73,66.18,44.87,1.187,8.29,-76.9,-3.4,-2.7,-2764,96.1,5.89,13.2,
25.91231732,-80.1375402,18:50.6,11/16/22,6,1.785,150.23,-7.23198201,2.08,155.2,145.31,2.17,6.92,32.8,0,3.57,3.57,98,61,524.7,16.3,-3.7,D,583.1,4,17.333,2,1.96,185,145.55,-80.13744218,25.91218878,0,0,1,N,0.6004671,70,70,11,119,119,143.2297,0,9999.99,3.59,3.717,2,9,29,0,29,44.89,1553.77409,11/16/22,11:51:04,27.74,66.2,44.89,1.164,8.29,-76.8,-3.8,-1.4,-595,96.1,5.89,13,
25.91230931,-80.13753504,18:51.6,11/16/22,7,2.132,154.26,-7.23198201,2.08,153.9,144.07,2.47,7.55,32.8,0,3.62,3.62,98,61,524.7,16.3,-3.7,D,583.1,4,16.306,2,1.96,185,145.28,-80.13744218,25.91218878,0,0,1,N,0.6483576,72,72,11,122,122,142.8886,0,9999.99,3.63,3.757,2,9,29,0,29,45.26,1554.16353,11/16/22,11:51:06,27.74,66.69,45.26,1.184,8.29,-76.8,-2.8,-1.8,-3211,96.2,5.87,13.1,
25.91230128,-80.13753087,18:52.6,11/16/22,7,2.108,154.88,-7.23198201,2.08,153.5,143.68,1.9,7.02,32.8,0,3.61,3.61,98,61,524.6,16.3,-3.7,D,579.2,4,15.336,2,1.97,185,144.66,-80.13744218,25.91218878,0,0,1,N,0.7737395,68,68,11,118,118,141.9977,0,9999.99,3.62,3.747,2,9,29,0,29,45.26,1554.16353,11/16/22,11:51:06,27.74,66.69,45.26,1.184,8.29,-76.8,-2.8,-1.8,-3211,96.2,5.87,13.1,
25.91229319,-80.13752624,18:53.6,11/16/22,7,1.805,151.71,-7.23198201,2.08,152.8,143.02,2.18,7.14,32.8,0,3.61,3.61,98,61,524.6,16.3,-3.7,D,579.2,4,14.334,2,1.96,185,144.09,-80.13744218,25.91218878,0,0,1,N,0.8691258,70,70,11,119,119,141.3217,0,9999.99,3.63,3.757,2,9,29,0,29,45.07,1553.96352,11/16/22,11:51:07,27.73,66.44,45.07,1.175,8.29,-76.9,-3.4,5.2,-241,96,5.87,13.2,
25.91228436,-80.13752099,18:54.6,11/16/22,7,1.868,149.51,-7.23198201,2.08,152.1,142.35,2.16,7.43,32.8,0,3.6,3.6,98,61,524.6,16.3,-3.7,D,579.2,4,13.232,2,1.94,185,143.44,-80.13744218,25.91218878,0,0,1,N,0.9556442,72,72,11,123,123,140.7099,0,9999.99,3.62,3.747,2,9,29,0,29,45,1553.88981,11/16/22,11:51:09,27.7,66.34,45,1.176,8.3,-77.1,-3.7,-6.8,-1992,96.2,5.89,13.2,
25.91227705,-80.13751697,18:55.6,11/16/22,7,2.124,152.81,-7.23198201,1.42,152.4,142.64,1.72,6.84,32.8,0,3.59,3.59,98,61,524.6,16.3,-3.7,D,579.2,4,12.341,2,1.96,185,142.69,-80.13744218,25.91218878,0,0,1,N,1.052446,67,67,11,117,117,140.0275,0,9999.99,3.61,3.737,2,9,29,0,29,44.93,1553.81618,11/16/22,11:51:10,27.71,66.26,44.93,1.169,8.29,-76.9,-4.4,0.6,-791,96.2,5.89,13.1,
25.91226741,-80.13751161,18:56.6,11/16/22,7,2.085,153.28,-7.23198201,1.42,150.8,141.11,1.78,7.63,32.8,0,3.6,3.6,98,61,524.6,16.3,-3.7,D,579.6,4,11.165,2,1.93,185,141.54,-80.13744218,25.91218878,0,0,1,N,1.178924,68,68,11,118,118,139.139,0,9999.99,3.62,3.747,2,9,29,0,29,44.64,1553.51086,11/16/22,11:51:11,27.71,65.88,44.64,1.174,8.29,-76.9,-4.4,-3,-1271,96.1,5.9,13.3,
25.91225752,-80.13750757,18:57.6,11/16/22,7,1.879,150.47,-7.23198201,1.42,150.3,140.64,1.85,6.6,32.8,0,3.61,3.61,98,61,524.6,16.3,-3.7,D,579.6,4,10.059,2,1.93,185,139.45,-80.13744218,25.91218878,0,0,1,N,1.428751,69,69,11,117,117,137.3966,0,9999.99,3.63,3.757,2,9,29,0,29,44.64,1553.51086,11/16/22,11:51:11,27.71,65.88,44.64,1.174,8.29,-76.9,-4.4,-3,-1271,96.1,5.9,13.3,
25.91224927,-80.13750285,18:58.6,11/16/22,8,1.825,148.11,-7.23198201,1.42,148.4,138.84,1.85,6.61,32.8,0,3.57,3.57,98,61,524.6,16.3,-3.7,D,579.6,4,9.059,2,1.94,185,137.94,-80.13744218,25.91218878,0,0,1,N,1.528645,68,68,11,118,118,136.7044,0,9999.99,3.58,3.707,2,9,29,0,29,44.8,1553.67927,11/16/22,11:51:12,27.73,66.08,44.8,1.173,8.29,-76.7,-3.1,-2.3,-928,96,5.88,13,
25.91224154,-80.13749663,18:59.6,11/16/22,7,2.091,149.72,-7.23198201,2.08,148.2,138.65,1.82,7.28,32.8,0,3.54,3.54,98,60,524.5,16.3,-3.6,D,595.2,4,8.005,2,1.97,185,137.13,-80.13744218,25.91218878,0,0,1,N,1.466347,68,68,11,121,121,137.1356,0,9999.99,3.55,3.677,2,9,29,0,29,45.03,1553.92136,11/16/22,11:51:14,27.74,66.39,45.03,1.179,8.29,-76.8,-3.5,-5.5,90,95.9,5.87,13.3,
25.91223488,-80.13749042,19:00.6,11/16/22,8,2.071,149.07,-7.23198201,1.3,146.8,137.32,1.44,7.23,32.7,0,3.62,3.63,98,60,524.5,16.3,-3.6,D,595.2,4,7.039,2,1.99,185,136.73,-80.13744218,25.91218878,0,0,1,N,1.338922,64,64,11,129,129,138.0215,0,9999.99,3.64,3.767,2,9,29,0,29,45.03,1553.92136,11/16/22,11:51:14,27.74,66.39,45.03,1.179,8.29,-76.8,-3.5,-5.5,90,95.9,5.87,13.3,
25.91222543,-80.1374864,19:01.6,11/16/22,8,2.023,148.17,-7.23198201,1.12,146.8,137.32,1.31,7.1,32.8,0,3.68,3.68,98,60,524.5,16.3,-3.6,D,595.2,4,6.014,2,1.99,185,132.66,-80.13744218,25.91218878,0,0,1,N,1.563814,63,63,11,124,124,136.4619,0,9999.99,3.69,3.817,2,9,29,0,29,44.83,1553.71087,11/16/22,11:51:15,27.71,66.13,44.83,1.168,8.29,-76.9,-3.7,-0.3,-1848,95.9,5.88,13.3,
25.91221712,-80.13748084,19:02.6,11/16/22,8,1.971,146.41,-7.23198201,1.12,146.3,136.85,1.3,6.74,32.7,0,3.68,3.68,98,60,524.5,16.3,-3.6,D,595.2,5,26.142,1,1.99,181,141.19,-80.13731704,25.91203391,0,0,1,N,1.294868,67,67,11,136,136,138.6256,0,9999.99,3.69,3.817,2,9,29,0,29,44.68,1553.55295,11/16/22,11:51:17,27.71,65.93,44.68,1.174,8.29,-76.9,-3.6,-4.1,-760,95.7,5.87,13.2,
25.91220857,-80.13747437,19:03.6,11/16/22,8,1.939,144.78,-7.23198201,1.12,146.8,137.32,1.41,4.6,32.7,0,3.55,3.55,98,59,524.5,16.3,-3.6,D,602.7,5,24.996,1,1.99,178,140.98,-80.13731704,25.91203391,0,0,1,N,1.328691,65,65,11,129,129,137.9211,0,9999.99,3.56,3.687,2,9,28.9,0,28.89999962,44.38,1553.03113,11/16/22,11:51:18,27.73,65.55,44.38,1.19,8.3,-77.2,-3.9,-2,-1112,95.9,5.89,13.2,
25.91220096,-80.13746805,19:04.6,11/16/22,9,1.91,143.39,-7.23198201,1.12,145.6,136.19,1.97,4.51,32.8,0,3.69,3.69,98,59,524.5,16.3,-3.6,D,602.7,5,23.941,1,1.92,174,140.89,-80.13731704,25.91203391,0,0,1,N,1.315153,68,68,11,132,132,137.3308,0,9999.99,3.7,3.827,2,9,28.9,0,28.89999962,44.38,1553.03113,11/16/22,11:51:18,27.73,65.55,44.38,1.19,8.3,-77.2,-3.9,-2,-1112,95.9,5.89,13.2,
25.91219418,-80.13746244,19:05.6,11/16/22,9,1.795,141.35,-7.23198201,1.12,145.8,136.38,1.86,2.18,32.7,0,3.73,3.74,98,59,524.5,16.3,-3.6,D,602.7,5,23.002,1,1.86,170,140.78,-80.13731704,25.91203391,0,0,1,N,1.305491,68,68,11,128,128,136.6799,0,9999.99,3.75,3.877,2,9,28.9,0,28.89999962,44.71,1553.37876,11/16/22,11:51:19,27.73,65.98,44.71,1.161,8.3,-77.1,-4,-7.8,-2950,96.1,5.89,13.2,
25.91218842,-80.13745697,19:06.6,11/16/22,8,1.679,141.61,-7.23198201,1.24,145.8,136.38,2.53,1.62,32.7,0,3.7,3.7,98,39,524.5,16.4,-2.3,D,912.3,5,22.159,1,1.8,167,140.83,-80.13731704,25.91203391,0,0,1,N,1.237242,72,72,11,127,127,136.3069,0,9999.99,3.72,3.847,2,9,28.9,0,28.89999962,44.68,1553.34721,11/16/22,11:51:21,27.7,65.93,44.68,1.147,8.29,-76.8,-3.8,-4.1,-2373,96.3,5.91,13.3,
25.91218301,-80.13745184,19:07.6,11/16/22,9,1.583,142.07,-7.23198201,1.24,145.1,135.72,2.76,0.49,32.7,0.01,3.72,3.72,98,39,524.5,16.4,-2.3,D,912.3,5,21.37,1,1.71,163,140.88,-80.13731704,25.91203391,0,0,1,N,1.172852,74,74,11,127,127,135.8488,0,9999.99,3.74,3.867,2,9,28.9,0,28.89999962,44.68,1553.34721,11/16/22,11:51:21,27.7,65.93,44.68,1.147,8.29,-76.8,-3.8,-4.1,-2373,96.3,5.91,13.3,
25.91217738,-80.13744738,19:08.6,11/16/22,8,1.603,142.07,-7.23198201,1.12,145.1,135.72,2.51,-0.44,32.7,0,3.72,3.72,98,39,524.5,16.4,-2.3,D,912.3,5,20.602,1,1.62,161,140.75,-80.13731704,25.91203391,0,0,1,N,1.180182,72,72,11,127,127,135.601,0,9999.99,3.74,3.867,2,9,28.9,0,28.89999962,44.65,1553.31598,11/16/22,11:51:22,27.69,65.9,44.65,1.144,8.29,-76.8,-3,-0.3,-3430,96.5,5.92,13.3,
25.91217282,-80.13744315,19:09.6,11/16/22,8,1.404,141.82,-7.23198201,1.12,145.4,136,2.05,-1.29,32.7,0,3.72,3.72,98,39,524.5,16.4,-2.3,D,912.3,5,19.942,1,1.52,161,140.77,-80.13731704,25.91203391,0,0,1,N,1.138301,70,70,11,126,126,135.894,0,9999.99,3.74,3.867,2,9,28.9,0,28.89999962,44.42,1553.07363,11/16/22,11:51:24,27.73,65.6,44.42,1.145,8.29,-77,-3.8,-3.6,-1240,96.6,5.93,13.2,
25.91216767,-80.13743941,19:10.6,11/16/22,8,1.231,141.82,-7.23198201,1.12,144.8,135.43,2.3,-0.9,32.8,0,3.74,3.74,98,31,524.4,16.4,-1.8,D,1152.8,5,19.262,1,1.41,160,140.55,-80.13731704,25.91203391,0,0,1,N,1.170629,71,71,11,128,128,135.6661,0,9999.99,3.76,3.887,2,9,28.9,0,28.89999962,44.67,1553.33676,11/16/22,11:51:25,27.72,65.93,44.67,1.138,8.29,-77,-3.9,-1.7,-3306,96.8,5.93,13.2,
25.91216305,-80.13743565,19:11.6,11/16/22,9,1.182,141.82,-7.23198201,1.12,144.7,135.34,2.46,-1.23,32.8,0,3.73,3.73,98,31,524.4,16.4,-1.8,D,1152.8,5,18.626,1,1.35,160,140.44,-80.13731704,25.91203391,0,0,1,N,1.165917,72,72,11,127,127,135.698,0,9999.99,3.75,3.877,2,9,28.9,0,28.89999962,44.67,1553.33676,11/16/22,11:51:25,27.72,65.93,44.67,1.138,8.29,-77,-3.9,-1.7,-3306,96.8,5.93,13.2,
25.9121589,-80.13743184,19:12.6,11/16/22,9,1.229,140.27,-7.23198201,1.12,144.8,135.43,2.11,-1.45,32.8,0,3.74,3.74,98,31,524.4,16.4,-1.8,D,1152.8,5,18.027,1,1.28,160,140.44,-80.13731704,25.91203391,0,0,1,N,1.131285,69,69,11,129,129,135.9417,0,9999.99,3.76,3.887,2,9,28.9,0,28.89999962,44.58,1553.24185,11/16/22,11:51:26,27.7,65.8,44.58,1.145,8.3,-77.1,-3,-2.7,-3692,96.5,5.92,13.2,
25.91215493,-80.13742847,19:13.6,11/16/22,9,1.214,139.04,-7.23198201,1.12,145.5,136.09,1.94,-2.02,32.8,0,3.75,3.75,98,30,524.4,16.4,-1.8,D,1192.4,5,17.473,1,1.22,159,140.37,-80.13731704,25.91203391,0,0,1,N,1.115046,69,69,11,127,127,136.0558,0,9999.99,3.77,3.897,2,9,28.9,0,28.89999962,44.05,1552.68375,11/16/22,11:51:28,27.71,65.12,44.05,1.143,8.29,-76.9,-4,-6.4,-4642,96.7,5.95,13.1,
25.91215104,-80.13742448,19:14.6,11/16/22,9,1.106,138.81,-7.23198201,0.9,145.5,136.09,2.19,-1.86,32.8,0,3.76,3.76,98,30,524.4,16.4,-1.8,D,1192.4,5,16.885,1,1.19,159,140.47,-80.13731704,25.91203391,0,0,1,N,1.046097,70,70,11,129,129,136.5409,0,9999.99,3.78,3.907,2,9,28.9,0,28.89999962,44.05,1552.68375,11/16/22,11:51:28,27.71,65.12,44.05,1.143,8.29,-76.9,-4,-6.4,-4642,96.7,5.95,13.1,
25.91214712,-80.13742085,19:15.6,11/16/22,9,1.099,140.66,-7.23198201,0.9,144.7,135.34,2.04,-1.73,32.8,0,3.77,3.77,98,30,524.4,16.4,-1.8,D,1192.4,5,16.318,1,1.19,159,140.49,-80.13731704,25.91203391,0,0,1,N,1.008681,69,69,11,133,133,136.8046,0,9999.99,3.79,3.917,2,9,28.9,0,28.89999962,44.65,1553.31555,11/16/22,11:51:29,27.73,65.9,44.65,1.15,8.29,-76.8,-3.2,-3.1,-2978,96.9,5.94,13.2,
25.91214438,-80.13741586,19:16.6,11/16/22,9,1.066,139.67,-7.23198201,0.9,144.8,135.43,1.78,-1.58,32.8,0,3.81,3.81,98,30,524.4,16.4,-1.8,D,1192.4,5,15.767,1,1.17,159,141.18,-80.13731704,25.91203391,0,0,1,N,0.7858058,68,68,11,139,139,138.3808,0,9999.99,3.83,3.957,2,9,28.9,0,28.89999962,44.43,1553.08381,11/16/22,11:51:30,27.7,65.6,44.43,1.15,8.29,-76.9,-2.6,-3.1,-2303,96.7,5.94,13.1,
25.91214173,-80.13741256,19:17.6,11/16/22,9,1.104,137.58,-7.23198201,0.9,144.9,135.53,2.21,-1.81,32.8,0,3.83,3.83,98,29,524.3,16.4,-1.8,D,1200.9,5,15.33,1,1.16,159,141.45,-80.13731704,25.91203391,0,0,1,N,0.6926557,70,70,11,141,141,139.0419,0,9999.99,3.85,3.977,2,9,28.9,0,28.89999962,44.02,1552.65207,11/16/22,11:51:32,27.69,65.08,44.02,1.157,8.3,-77,-3.7,-1.2,-2982,96.9,5.97,13,
25.91213834,-80.13740906,19:18.6,11/16/22,9,1.093,136.3,-7.23198201,0.9,145.4,136,1.74,-1.64,32.8,0,3.82,3.82,98,29,524.3,16.4,-1.8,D,1200.9,5,14.817,1,1.13,159,141.6,-80.13731704,25.91203391,0,0,1,N,0.6286959,67,67,11,141,141,139.4971,0,9999.99,3.84,3.967,2,9,28.9,0,28.89999962,44.02,1552.65207,11/16/22,11:51:32,27.69,65.08,44.02,1.157,8.3,-77,-3.7,-1.2,-2982,96.9,5.97,13,
25.91213427,-80.13740539,19:19.6,11/16/22,9,1.06,139.21,-7.23198201,0.9,145.1,135.72,1.95,-2.04,32.8,0,3.79,3.79,98,29,524.3,16.4,-1.8,D,1200.9,5,14.235,1,1.13,159,141.63,-80.13731704,25.91203391,0,0,1,N,0.5965816,69,69,11,143,143,139.7256,0,9999.99,3.81,3.937,2,9,28.9,0,28.89999962,44.3,1552.9469,11/16/22,11:51:34,27.7,65.45,44.3,1.135,8.29,-77,-3.4,-4.8,-2134,96.9,5.96,13.2,
25.91213143,-80.13740129,19:20.6,11/16/22,9,1.017,139.07,-7.23198201,0.9,145.8,136.38,1.86,-1.72,32.8,0,3.78,3.78,98,29,524.3,16.4,-1.8,D,1200.9,5,13.733,1,1.11,159,142.15,-80.13731704,25.91203391,0,0,1,N,0.451796,67,67,11,145,145,140.7582,0,9999.99,3.79,3.917,2,9,28.9,0,28.89999962,44.3,1552.9469,11/16/22,11:51:34,27.7,65.45,44.3,1.135,8.29,-77,-3.4,-4.8,-2134,96.9,5.96,13.2,
25.91212829,-80.13739766,19:21.6,11/16/22,9,1.062,136.05,-7.23198201,0.9,146.1,136.66,1.86,-2.07,32.8,0,3.77,3.77,98,29,524.3,16.4,-1.7,D,1215.5,5,13.235,1,1.12,158,142.46,-80.13731704,25.91203391,0,0,1,N,0.3622195,68,68,11,146,146,141.398,0,9999.99,3.79,3.917,2,9,28.9,0,28.89999962,44.33,1552.97855,11/16/22,11:51:35,27.67,65.48,44.33,1.149,8.3,-77.1,-4.2,-3.7,-3056,97,5.96,13.2,
25.91212523,-80.1373935,19:22.6,11/16/22,9,1.071,134.24,-7.23198201,0.9,146.5,137.04,2.04,-1.92,32.8,0,3.8,3.8,98,29,524.3,16.4,-1.7,D,1215.5,5,12.712,1,1.12,158,143.02,-80.13731704,25.91203391,0,0,1,N,0.2241142,68,68,11,150,150,142.3857,0,9999.99,3.82,3.947,2,9,28.9,0,28.89999962,44.4,1553.05219,11/16/22,11:51:37,27.72,65.58,44.4,1.135,8.29,-77,-4.8,-3.2,-2924,96.9,5.95,13.2,
25.91212132,-80.13738984,19:23.6,11/16/22,9,0.984,136.54,-7.23198201,0.9,147.2,137.7,2.08,-2.13,32.8,0,3.83,3.83,98,29,524.3,16.4,-1.7,D,1215.5,5,12.144,1,1.1,158,143.16,-80.13731704,25.91203391,0,0,1,N,0.1842606,69,69,11,149,149,142.671,0,9999.99,3.85,3.977,2,9,28.9,0,28.89999962,44.4,1553.05219,11/16/22,11:51:37,27.72,65.58,44.4,1.135,8.29,-77,-4.8,-3.2,-2924,96.9,5.95,13.2,
25.91211773,-80.13738734,19:24.6,11/16/22,9,0.962,141.8,-7.23198201,0.9,147.8,138.27,2.08,-2.33,32.8,0,3.84,3.84,98,28,524.3,16.4,-1.7,D,1242.5,5,11.675,1,1.09,158,142.97,-80.13731704,25.91203391,0,0,1,N,0.2149239,69,69,11,144,144,142.4514,0,9999.99,3.86,3.987,2,9,28.9,0,28.89999962,44.35,1552.99958,11/16/22,11:51:38,27.7,65.5,44.35,1.131,8.29,-77,-4.6,-4.2,-3786,96.7,5.94,13.2,
25.9121145,-80.13738453,19:25.6,11/16/22,9,1.036,142.34,-7.23198201,0.9,149,139.4,2,-2.04,32.8,0,3.85,3.85,98,28,524.3,16.4,-1.7,D,1242.5,5,11.22,1,1.05,158,143.01,-80.13731704,25.91203391,0,0,1,N,0.1965266,69,69,11,140,140,142.5831,0,9999.99,3.87,3.997,2,9,28.9,0,28.89999962,43.79,1552.40995,11/16/22,11:51:40,27.7,64.78,43.79,1.14,8.3,-77.2,-2.9,-1.1,-3983,96.7,5.96,13,
25.91211075,-80.13738093,19:26.6,11/16/22,9,1.076,139.48,-7.23198201,0.9,149,139.4,2.07,-1.99,32.8,0,3.85,3.85,98,28,524.3,16.4,-1.7,D,1242.5,5,10.669,1,1.06,158,143.21,-80.13731704,25.91203391,0,0,1,N,0.1504438,69,69,11,141,141,142.913,0,9999.99,3.87,3.997,2,9,28.9,0,28.89999962,43.79,1552.40995,11/16/22,11:51:40,27.7,64.78,43.79,1.14,8.3,-77.2,-2.9,-1.1,-3983,96.7,5.96,13,
25.91210705,-80.1373781,19:27.6,11/16/22,9,0.956,140.8,-7.23198201,0.9,149.8,140.16,1.85,-1.92,32.8,0,3.81,3.82,98,28,524.3,16.4,-1.7,D,1242.5,5,10.171,1,1.06,158,143.1,-80.13731704,25.91203391,0,0,1,N,0.162609,68,68,11,138,138,142.8259,0,9999.99,3.83,3.957,2,9,28.9,0,28.89999962,44.4,1553.05228,11/16/22,11:51:41,27.71,65.57,44.4,1.117,8.3,-77.1,-3.3,-5.3,-1377,96.7,5.94,13.2,
25.9121033,-80.13737566,19:28.6,11/16/22,9,0.94,143.88,-7.23198201,0.9,150.8,141.11,1.99,-2.29,32.9,0,3.83,3.83,98,28,524.2,16.4,-1.7,D,1250.9,5,9.691,1,1.04,158,142.77,-80.13731704,25.91203391,0,0,1,N,0.2097299,69,69,11,133,133,142.4887,0,9999.99,3.85,3.977,2,9,28.9,0,28.89999962,44.09,1552.72583,11/16/22,11:51:43,27.67,65.16,44.09,1.126,8.29,-76.8,-2.6,-3.3,-2450,96.6,5.95,13.3,
25.91209855,-80.13737427,19:29.6,11/16/22,9,1.046,147.66,-7.23198201,0.9,150.8,141.11,2.13,-2.13,32.9,0,3.86,3.86,98,28,524.2,16.4,-1.7,D,1250.9,5,9.188,1,1.03,158,141.46,-80.13731704,25.91203391,0,0,1,N,0.4077326,70,70,11,126,126,141.0729,0,9999.99,3.88,4.007,2,9,28.9,0,28.89999962,44.09,1552.72583,11/16/22,11:51:43,27.67,65.16,44.09,1.126,8.29,-76.8,-2.6,-3.3,-2450,96.6,5.95,13.3,
25.91209451,-80.13737155,19:30.6,11/16/22,8,1.002,144.86,-7.23198201,1.12,151.4,141.68,1.68,-1.78,32.9,0,3.86,3.86,98,28,524.2,16.4,-1.7,D,1250.9,5,8.668,1,1.03,158,141.03,-80.13731704,25.91203391,0,0,1,N,0.4511842,67,67,11,123,123,140.7623,0,9999.99,3.88,4.007,2,9,28.9,0,28.89999962,43.91,1552.53625,11/16/22,11:51:44,27.7,64.93,43.91,1.142,8.29,-77,-3,2.5,-3690,96.4,5.94,13.1,
25.91209025,-80.13736866,19:31.6,11/16/22,9,0.967,148.27,-7.23198201,1.12,150.4,140.73,1.94,-1.89,32.9,0,3.86,3.86,98,29,524.2,16.4,-1.7,D,1236,5,8.118,1,1.05,158,140.51,-80.13731704,25.91203391,0,0,1,N,0.4963071,69,69,11,126,126,140.4403,0,9999.99,3.88,4.007,2,9,28.9,0,28.89999962,44.02,1552.65207,11/16/22,11:51:46,27.66,65.08,44.02,1.134,8.3,-77.1,-3.5,-2.7,-1858,96.5,5.94,13.3,
25.91208639,-80.13736626,19:32.6,11/16/22,9,1.049,152.78,-7.23198201,1.12,150.6,140.92,1.94,-1.71,32.9,0,3.87,3.87,98,29,524.2,16.4,-1.7,D,1236,5,7.635,1,1.06,158,139.85,-80.13731704,25.91203391,0,0,1,N,0.5543363,69,69,11,122,122,140.0265,0,9999.99,3.89,4.017,2,9,28.9,0,28.89999962,44.02,1552.65207,11/16/22,11:51:46,27.66,65.08,44.02,1.134,8.3,-77.1,-3.5,-2.7,-1858,96.5,5.94,13.3,
25.9120822,-80.13736449,19:33.6,11/16/22,8,1.067,151.65,-7.23198201,1.12,150.5,140.83,1.62,-1.67,32.9,0,3.47,3.47,98,29,524.2,16.4,-1.7,D,1236,5,7.166,1,1.05,158,138.53,-80.13731704,25.91203391,0,0,1,N,0.6850529,67,67,11,120,120,139.0958,0,9999.99,3.49,3.617,2,9,28.9,0,28.89999962,43.83,1552.45192,11/16/22,11:51:47,27.68,64.83,43.83,1.134,8.3,-77.1,-2.6,-2.2,-2806,96.8,5.97,13.1,
25.91207759,-80.13736173,19:34.7,11/16/22,9,1.014,147.78,-7.23198201,1.12,149.8,140.16,2.02,-2.25,32.9,0,3.62,3.63,98,29,524.2,16.4,-1.7,D,1236,5,6.601,1,1.05,158,137.38,-80.13731704,25.91203391,0,0,1,N,0.7646556,69,69,11,120,120,138.5306,0,9999.99,3.64,3.767,2,9,28.8,0,28.79999924,43.94,1552.36078,11/16/22,11:51:49,27.65,64.98,43.94,1.137,8.3,-77,-1.7,-5.4,-3177,97,5.98,13.2,
25.91207374,-80.13735917,19:35.7,11/16/22,9,0.989,148.82,-7.23198201,1.12,149.1,139.5,2.16,-1.7,32.9,0,3.91,3.91,98,28,524.1,16.4,-1.7,D,1242.2,6,28.326,1,1.04,158,192.91,-80.13742242,25.91182544,0,0,1,N,0.8099927,70,70,11,250,250,171.5387,0,9999.99,3.92,4.047,2,9,28.8,0,28.79999924,43.94,1552.36078,11/16/22,11:51:49,27.65,64.98,43.94,1.137,8.3,-77,-1.7,-5.4,-3177,97,5.98,13.2,
25.9120699,-80.13735677,19:36.7,11/16/22,9,0.981,149.92,-7.23198201,1.12,150.6,140.92,1.71,1.23,32.9,0,3.8,3.8,98,28,524.1,16.4,-1.7,D,1242.2,6,27.965,1,1.03,158,193.58,-80.13742242,25.91182544,0,0,1,N,5.325963,67,67,11,250,250,177.9312,0,9999.99,3.82,3.947,2,9,28.8,0,28.79999924,43.79,1552.20266,11/16/22,11:51:50,27.66,64.78,43.79,1.144,8.29,-76.9,-3.1,-3.6,-4186,96.8,5.97,13.3,
25.9120655,-80.13735583,19:37.7,11/16/22,9,1.015,146.96,-7.23198201,1.12,154.7,144.83,2.36,-3.26,32.9,0,3.91,3.91,98,28,524.1,16.4,-1.7,D,1242.2,6,27.542,1,1.02,158,194.27,-80.13742242,25.91182544,0,0,1,N,4.925526,71,71,11,250,250,178.7334,0,9999.99,3.93,4.057,2,9,28.8,0,28.79999924,43.87,1552.28694,11/16/22,11:51:52,27.66,64.89,43.87,1.113,8.3,-77.1,-3.1,-1.3,-1851,96.5,5.95,13.2,
25.91206167,-80.13735333,19:38.7,11/16/22,8,0.968,146.96,-7.23198201,1.12,158.8,148.77,2.58,-1.37,32.9,0,3.92,3.92,98,29,524.1,16.4,-1.7,D,1234.5,6,27.156,1,0.99,158,194.79,-80.13742242,25.91182544,0,0,1,N,4.606638,72,72,11,249,249,179.265,0,9999.99,3.94,4.067,2,9,28.8,0,28.79999924,43.87,1552.28694,11/16/22,11:51:52,27.66,64.89,43.87,1.113,8.3,-77.1,-3.1,-1.3,-1851,96.5,5.95,13.2,
25.91205833,-80.1373505,19:39.7,11/16/22,8,0.865,148.62,-7.23198201,1.12,164,153.8,2.76,-2.99,32.9,0,3.89,3.89,98,29,524.1,16.4,-1.7,D,1234.5,6,26.806,1,0.96,158,195.42,-80.13742242,25.91182544,0,0,1,N,4.249654,74,74,11,232,232,180.1321,0,9999.99,3.91,4.037,2,9,28.8,0,28.79999924,43.87,1552.28728,11/16/22,11:51:53,27.67,64.88,43.87,1.136,8.3,-77.1,-3.1,-4.8,-5936,96.6,5.95,13.2,
25.91205417,-80.137349,19:40.7,11/16/22,8,0.929,155.23,-7.23198201,1.12,168.4,158.1,2.76,-2.23,32.9,0,3.91,3.91,98,29,524.1,16.4,-1.7,D,1234.5,6,26.498,1,0.94,158,196.16,-80.13742242,25.91182544,0,0,1,N,3.857946,74,74,11,220,220,181.4176,0,9999.99,3.93,4.057,2,9,28.8,0,28.79999924,44.11,1552.5401,11/16/22,11:51:54,27.7,65.19,44.11,1.127,8.3,-77.1,-2.8,-3.3,-3327,96.4,5.93,13.1,
25.91205033,-80.13734783,19:41.7,11/16/22,9,0.959,160.94,-7.23198201,1.16,172.8,162.43,2.65,-2.31,32.9,0.01,3.84,3.84,98,29,524.1,16.4,-1.7,D,1234.5,6,26.085,1,0.9,158,196.68,-80.13742242,25.91182544,0,0,1,N,3.564831,74,74,11,206,206,181.9003,0,9999.99,3.86,3.987,2,9,28.8,0,28.79999924,43.56,1551.96077,11/16/22,11:51:56,27.68,64.48,43.56,1.114,8.3,-77.2,-2.3,-5.7,-3416,96.2,5.94,13.1,
25.91204542,-80.13734721,19:42.8,11/16/22,8,0.91,165.97,-7.23198201,1.16,177.2,166.79,2.68,-2.9,32.9,0,3.84,3.84,98,29,524.1,16.4,-1.7,D,1215.9,6,25.591,1,0.9,158,197.09,-80.13742242,25.91182544,0,0,1,N,3.27415,73,73,11,191,191,182.7401,0,9999.99,3.86,3.987,2,9,28.8,0,28.79999924,43.56,1551.96077,11/16/22,11:51:56,27.68,64.48,43.56,1.114,8.3,-77.2,-2.3,-5.7,-3416,96.2,5.94,13.1,
25.91204137,-80.13734694,19:43.8,11/16/22,9,0.849,170.32,-7.23198201,1.16,181.7,171.29,2.66,-3.05,32.9,0,3.94,3.94,98,29,524.1,16.4,-1.7,D,1215.9,6,25.17,1,0.91,158,197.45,-80.13742242,25.91182544,0,0,1,N,3.050723,73,73,11,177,177,183.6712,0,9999.99,3.96,4.087,2,9,28.8,0,28.79999924,44.06,1552.48738,11/16/22,11:51:57,27.72,65.13,44.06,1.117,8.29,-76.9,-3.3,-4.9,-4376,96.3,5.93,13.2,
25.91203767,-80.13734717,19:44.8,11/16/22,9,0.912,176.44,-7.23198201,1.11,183.7,173.31,2.47,-2.08,32.9,0,3.9,3.9,98,29,524.1,16.4,-1.7,D,1215.9,6,24.764,1,0.91,158,197.85,-80.13742242,25.91182544,0,0,1,N,2.87552,72,72,11,173,173,184.6807,0,9999.99,3.92,4.047,2,9,28.8,0,28.79999924,43.52,1551.91828,11/16/22,11:51:59,27.71,64.44,43.52,1.113,8.3,-77.2,-2.8,-3.5,-3775,96.2,5.94,13.2,
25.91203274,-80.13734782,19:45.8,11/16/22,9,0.951,182.62,-7.23198201,1.11,187.2,176.85,2.17,-2.59,32.9,0,3.89,3.89,98,29,524,16.4,-1.7,D,1226.7,6,24.229,1,0.91,158,197.94,-80.13742242,25.91182544,0,0,1,N,2.707827,71,71,11,162,162,185.4882,0,9999.99,3.91,4.037,2,9,28.8,0,28.79999924,43.52,1551.91828,11/16/22,11:51:59,27.71,64.44,43.52,1.113,8.3,-77.2,-2.8,-3.5,-3775,96.2,5.94,13.2,
25.91202852,-80.13734834,19:46.8,11/16/22,9,0.944,183.23,-7.23198201,0.9,189,178.67,1.88,-2.42,32.9,0,3.88,3.88,98,29,524,16.4,-1.7,D,1226.7,6,23.766,1,0.93,158,198.16,-80.13742242,25.91182544,0,0,1,N,2.579368,68,68,11,159,159,186.373,0,9999.99,3.9,4.027,2,9,28.8,0,28.79999924,43.87,1552.28732,11/16/22,11:52:00,27.73,64.89,43.87,1.138,8.3,-77.1,-2.2,-4.9,734,96.2,5.92,13,
25.91202419,-80.13734886,19:47.8,11/16/22,9,0.881,185.32,-7.23198201,0.9,190.3,180,2.01,-2.12,32.9,0,3.8,3.81,98,29,524,16.4,-1.7,D,1226.7,6,23.292,1,0.95,158,198.41,-80.13742242,25.91182544,0,0,1,N,2.437627,69,69,11,156,156,187.3371,0,9999.99,3.82,3.947,2,9,28.8,0,28.79999924,43.56,1551.96042,11/16/22,11:52:02,27.73,64.49,43.56,1.111,8.29,-76.9,-2.1,-4.3,-3091,96.4,5.95,13.2,
25.91201977,-80.13734937,19:48.8,11/16/22,9,0.952,188.15,-7.23198201,0.9,191.7,181.42,1.83,-1.95,32.8,0,3.75,3.75,98,29,524,16.4,-1.7,D,1226.7,6,22.81,1,0.97,158,198.68,-80.13742242,25.91182544,0,0,1,N,2.292044,68,68,11,155,155,188.3296,0,9999.99,3.77,3.897,2,9,28.8,0,28.79999924,43.56,1551.96042,11/16/22,11:52:02,27.73,64.49,43.56,1.111,8.29,-76.9,-2.1,-4.3,-3091,96.4,5.95,13.2,
25.91201527,-80.13735056,19:49.8,11/16/22,8,0.971,190.96,-7.23198201,1.11,193.4,183.16,1.93,-2.34,32.8,0,3.79,3.79,98,29,524,16.4,-1.7,D,1228.7,6,22.297,1,0.98,158,198.8,-80.13742242,25.91182544,0,0,1,N,2.14332,69,69,11,150,150,189.021,0,9999.99,3.81,3.937,2,9,28.8,0,28.79999924,43.68,1552.08687,11/16/22,11:52:03,27.72,64.64,43.68,1.121,8.3,-77.3,-3.4,-2,-4280,96.4,5.94,13.2,
25.912011,-80.1373519,19:50.8,11/16/22,8,0.989,191.94,-7.23198201,1.11,193.8,183.57,2,-1.41,32.8,0,3.79,3.8,98,29,524,16.4,-1.7,D,1228.7,6,21.806,1,0.99,158,198.87,-80.13742242,25.91182544,0,0,1,N,2.047194,69,69,11,151,151,189.5394,0,9999.99,3.81,3.937,2,9,28.8,0,28.79999924,43.7,1552.10794,11/16/22,11:52:05,27.74,64.67,43.7,1.136,8.3,-77.3,-3.5,-3.8,-1952,96.1,5.92,13.2,
25.91200675,-80.13735326,19:51.8,11/16/22,8,0.916,194.07,-7.23198201,1.11,195.7,185.52,1.87,-1.98,32.9,0,3.79,3.79,98,29,524,16.4,-1.7,D,1228.7,6,21.315,1,1.01,158,198.94,-80.13742242,25.91182544,0,0,1,N,1.979363,68,68,11,145,145,189.9995,0,9999.99,3.81,3.937,2,9,28.8,0,28.79999924,43.7,1552.10794,11/16/22,11:52:05,27.74,64.67,43.7,1.136,8.3,-77.3,-3.5,-3.8,-1952,96.1,5.92,13.2,
25.91200226,-80.13735493,19:52.8,11/16/22,8,0.994,196.56,-7.23198201,1.11,196.2,186.04,1.66,-2.51,32.9,0,3.8,3.8,98,29,524,16.4,-1.7,D,1222.5,6,20.787,1,1,158,198.95,-80.13742242,25.91182544,0,0,1,N,1.91972,67,67,11,144,144,190.3654,0,9999.99,3.82,3.947,2,9,28.8,0,28.79999924,43.58,1551.98148,11/16/22,11:52:06,27.71,64.51,43.58,1.128,8.3,-77.2,-3.6,-7.8,1691,96.2,5.94,13.2,
25.91199783,-80.13735694,19:53.8,11/16/22,8,1.099,199.74,-7.23198201,1.11,197,186.86,1.75,-1.6,32.8,0,3.78,3.78,98,29,524,16.4,-1.7,D,1222.5,6,20.257,1,1.02,158,198.86,-80.13742242,25.91182544,0,0,1,N,1.876783,68,68,11,141,141,190.5333,0,9999.99,3.8,3.927,2,9,28.8,0,28.79999924,43.5,1551.89721,11/16/22,11:52:08,27.71,64.4,43.5,1.128,8.3,-77,-2.4,0.1,-3323,96.2,5.94,13.1,
25.91199333,-80.13735928,19:54.8,11/16/22,8,1.032,199.18,-7.23198201,1.11,197.6,187.48,1.66,-1.56,32.8,0,3.76,3.77,98,29,524,16.4,-1.7,D,1222.5,6,19.708,1,1.02,158,198.69,-80.13742242,25.91182544,0,0,1,N,1.861394,68,68,11,139,139,190.4961,0,9999.99,3.78,3.907,2,9,28.8,0,28.79999924,43.5,1551.89721,11/16/22,11:52:08,27.71,64.4,43.5,1.128,8.3,-77,-2.4,0.1,-3323,96.2,5.94,13.1,
25.91198892,-80.13736114,19:55.8,11/16/22,8,0.975,198.94,-7.23198201,1.11,198.7,188.61,1.66,-1.6,32.8,0,3.74,3.74,98,29,524,16.4,-1.7,D,1222.5,6,19.184,1,1.02,158,198.63,-80.13742242,25.91182544,0,0,1,N,1.865236,67,67,11,135,135,190.7057,0,9999.99,3.75,3.877,2,9,28.8,0,28.79999924,43.31,1551.69716,11/16/22,11:52:09,27.73,64.16,43.31,1.115,8.3,-77.2,-2.2,0.2,-3627,96.2,5.94,13.2,
25.91198425,-80.13736315,19:56.8,11/16/22,8,1.06,200.03,-7.23198201,1.11,199.7,189.64,1.55,-1.48,32.8,0,3.73,3.73,98,29,524,16.4,-1.7,D,1229.3,6,18.627,1,1.03,158,198.56,-80.13742242,25.91182544,0,0,1,N,1.84726,66,66,11,133,133,190.9219,0,9999.99,3.74,3.867,2,9,28.8,0,28.79999924,43.52,1551.91832,11/16/22,11:52:10,27.74,64.43,43.52,1.129,8.3,-77.2,-3.8,-2.7,-5673,96.1,5.93,13.2,
25.91197983,-80.13736496,19:57.8,11/16/22,8,1.064,201.52,-7.23198201,1.11,199.4,189.33,1.67,-1.79,32.8,0,3.71,3.71,98,29,524,16.4,-1.7,D,1229.3,6,18.104,1,1.02,158,198.51,-80.13742242,25.91182544,0,0,1,N,1.827393,68,68,11,133,133,191.1909,0,9999.99,3.72,3.847,2,9,28.8,0,28.79999924,43.44,1551.83399,11/16/22,11:52:11,27.71,64.33,43.44,1.13,8.3,-77.3,-3.6,-1.6,-1679,96.2,5.94,13.2,
25.91197526,-80.13736666,19:58.8,11/16/22,8,1.06,199.47,-7.23198201,1.11,199.7,189.64,1.48,-1.31,32.8,0,3.69,3.69,98,29,523.9,16.4,-1.7,D,1222.3,6,17.568,1,1.02,158,198.51,-80.13742242,25.91182544,0,0,1,N,1.783252,66,66,11,134,134,191.565,0,9999.99,3.7,3.827,2,9,28.8,0,28.79999924,43.38,1551.77077,11/16/22,11:52:13,27.71,64.24,43.38,1.13,8.3,-77.2,-3.6,-3.6,-2834,96.3,5.95,13.2,
25.91197014,-80.1373689,19:59.9,11/16/22,8,1.053,200.33,-7.23198201,1.11,200.8,190.78,1.58,-1.76,32.9,0,3.67,3.67,98,29,523.9,16.4,-1.7,D,1222.3,6,16.956,1,0.94,158,198.4,-80.13742242,25.91182544,0,0,1,N,1.792114,66,66,11,131,131,191.8236,0,9999.99,3.68,3.807,0,0,28.8,0,28.79999924,43.38,1551.77077,11/16/22,11:52:13,27.71,64.24,43.38,1.13,8.3,-77.2,-3.6,-3.6,-2834,96.3,5.95,13.2,
25.91196605,-80.137371,20:00.9,11/16/22,9,0.98,203.68,-7.23198201,1.11,200,189.95,1.52,-1.67,32.8,0,3.63,3.63,98,29,523.9,16.4,-1.7,D,1222.3,6,16.46,1,0.98,158,198.21,-80.13742242,25.91182544,0,0,1,N,1.796528,66,66,11,134,134,191.7933,0,9999.99,3.65,3.777,2,9,28.8,0,28.79999924,43.36,1551.74955,11/16/22,11:52:14,27.74,64.22,43.36,1.122,8.3,-77.2,-2.5,-3.3,-4428,96.1,5.94,13.2,
25.9119617,-80.13737316,20:01.9,11/16/22,9,1.093,207.1,-7.23198201,1.11,200.9,190.88,2.04,-1.44,32.9,0,3.6,3.6,98,29,523.9,16.4,-1.7,D,1222.3,6,15.933,1,0.99,158,198.01,-80.13742242,25.91182544,0,0,1,N,1.793481,69,69,11,131,131,191.8143,0,9999.99,3.61,3.737,2,9,28.8,0,28.79999924,43.19,1551.57048,11/16/22,11:52:16,27.73,64,43.19,1.126,8.3,-77.1,-2.5,-2.6,-991,96.2,5.95,13.2,
25.91195801,-80.13737499,20:02.9,11/16/22,9,1.074,205.37,-7.23198201,0.9,200.2,190.16,2.03,-0.95,32.8,0,3.6,3.61,98,29,523.9,16.4,-1.7,D,1222.3,6,15.485,1,1.01,158,197.84,-80.13742242,25.91182544,0,0,1,N,1.727597,69,69,11,132,132,191.8263,0,9999.99,3.62,3.747,2,9,28.8,0,28.79999924,43.35,1551.7392,11/16/22,11:52:17,27.69,64.21,43.35,1.124,8.3,-77.1,-1.8,-3.3,-2636,96.4,5.96,13.1,
25.9119531,-80.13737767,20:03.9,11/16/22,9,1.033,203.98,-7.23198201,0.9,201.1,191.09,1.72,-1.86,32.8,0,3.61,3.62,98,29,523.9,16.4,-1.7,D,1222.3,6,14.884,1,1.02,158,197.5,-80.13742242,25.91182544,0,0,1,N,1.809782,67,67,11,129,129,191.7031,0,9999.99,3.63,3.757,2,9,28.8,0,28.79999924,43.13,1551.5074,11/16/22,11:52:18,27.73,63.92,43.13,1.109,8.3,-77.4,-2.6,-4.3,-2942,96.3,5.96,13.2,
25.91194714,-80.13738079,20:04.9,11/16/22,9,1.08,201.59,-7.23198201,0.9,201.1,191.09,1.65,-1.48,32.8,0,3.57,3.57,98,29,523.9,16.4,-1.7,D,1222.3,6,14.159,1,1.04,158,197.1,-80.13742242,25.91182544,0,0,1,N,1.820468,67,67,11,129,129,191.6303,0,9999.99,3.59,3.717,2,9,28.8,0,28.79999924,43.29,1551.67579,11/16/22,11:52:19,27.69,64.13,43.29,1.139,8.3,-77.4,-4,-3.2,128,96.3,5.95,13.2,
25.9119428,-80.13738321,20:05.9,11/16/22,8,1.121,203.89,-7.23198201,1.11,200.9,190.88,1.59,-1.77,32.9,0,3.56,3.56,98,67,523.9,16.4,4.1,C,-1,6,13.626,1,1.08,158,196.73,-80.13742242,25.91182544,0,0,1,N,1.841673,68,68,11,129,129,191.4858,0,9999.99,3.57,3.697,2,9,28.8,0,28.79999924,43.05,1551.42318,11/16/22,11:52:20,27.72,63.83,43.05,1.123,8.3,-77.3,-3.4,-0.6,-4343,96.2,5.95,13.1,
25.91193849,-80.13738501,20:06.9,11/16/22,8,1.038,205.17,-7.23198201,1.11,200.8,190.78,1.73,-1.29,32.8,0,3.52,3.52,98,67,523.9,16.4,4.1,C,-1,6,13.115,1,1.05,158,196.58,-80.13742242,25.91182544,0,0,1,N,1.807863,67,67,11,132,132,191.7161,0,9999.99,3.53,3.657,2,9,28.8,0,28.79999924,43.24,1551.62356,11/16/22,11:52:21,27.7,64.06,43.24,1.117,8.3,-77.1,-2.5,-2.1,-4028,96.2,5.95,13.2,
25.91193396,-80.13738729,20:07.9,11/16/22,8,1.025,202.6,-7.23198201,1.11,201,190.99,1.78,-1.87,32.8,0,3.51,3.51,98,67,523.9,16.4,4.1,C,-1,6,12.569,1,1.04,158,196.23,-80.13742242,25.91182544,0,0,1,N,1.805955,68,68,11,130,130,191.7291,0,9999.99,3.52,3.647,2,9,28.8,0,28.79999924,43.02,1551.39146,11/16/22,11:52:22,27.72,63.79,43.02,1.116,8.3,-77.2,-2.2,-2,-2502,96.5,5.97,13.2,
25.91192897,-80.13738994,20:08.9,11/16/22,9,1.061,201.73,-7.23198201,1.11,201.1,191.09,1.89,-1.84,32.9,0,3.47,3.47,98,28,523.8,16.4,-1.7,D,1249.5,6,11.962,1,1.04,158,195.76,-80.13742242,25.91182544,0,0,1,N,1.81788,68,68,11,129,129,191.6474,0,9999.99,3.49,3.617,2,9,28.8,0,28.79999924,43.13,1551.50726,11/16/22,11:52:23,27.69,63.93,43.13,1.123,8.3,-77.2,-3.1,0.5,985,96.5,5.97,13.2,
25.91192517,-80.13739165,20:09.9,11/16/22,8,1.056,203.5,-7.23198201,1.11,200.5,190.47,1.74,-1.03,32.9,0,3.45,3.46,98,28,523.8,16.4,-1.7,D,1249.5,6,11.508,1,1.03,158,195.51,-80.13742242,25.91182544,0,0,1,N,1.800937,67,67,11,131,131,191.7634,0,9999.99,3.47,3.597,2,9,28.8,0,28.79999924,42.92,1551.28603,11/16/22,11:52:24,27.71,63.66,42.92,1.125,8.3,-77.3,-3,-1.7,-2345,96.5,5.98,13,
25.91192133,-80.13739315,20:10.9,11/16/22,8,1.019,203.76,-7.23198201,1.11,200.6,190.57,1.86,-1.88,32.8,0,3.41,3.42,98,28,523.8,16.4,-1.7,D,1249.5,6,11.057,1,1.04,158,195.36,-80.13742242,25.91182544,0,0,1,N,1.760495,68,68,11,133,133,192.0388,0,9999.99,3.43,3.557,2,9,28.8,0,28.79999924,43.12,1551.4968,11/16/22,11:52:25,27.69,63.91,43.12,1.121,8.3,-77.3,-3.3,-3.2,-1254,96.5,5.97,13.2,
25.91191748,-80.13739496,20:11.9,11/16/22,8,1.02,201.27,-7.23198201,1.11,200.5,190.47,1.55,-1.46,32.8,0,3.39,3.4,98,28,523.8,16.4,-1.7,D,1249.5,6,10.596,1,1.04,158,195.02,-80.13742242,25.91182544,0,0,1,N,1.745848,66,66,11,134,134,192.1394,0,9999.99,3.41,3.537,2,9,28.8,0,28.79999924,42.91,1551.27569,11/16/22,11:52:26,27.72,63.64,42.91,1.134,8.3,-77.3,-3.7,-7.6,-1395,96.5,5.98,13.2,
25.91191281,-80.13739736,20:12.9,11/16/22,8,1.041,200.77,-7.23198201,1.11,199.7,189.64,1.6,-1.58,32.8,0,3.37,3.37,98,28,523.8,16.4,-1.7,D,1248,6,10.033,1,1.07,158,194.47,-80.13742242,25.91182544,0,0,1,N,1.750436,68,68,11,134,134,192.1078,0,9999.99,3.38,3.507,2,9,28.8,0,28.79999924,43.11,1551.48638,11/16/22,11:52:27,27.68,63.89,43.11,1.149,8.3,-77.5,-3.5,-2.7,-2970,96.5,5.97,13.3,
