Latitude,Longitude,Time,Date,Number of Sats,GPS Speed (Kn),GPS True Heading,GPS Magnetic Variation,HDOP,C Magnetic Heading,C True Heading,Pitch Angle,Roll Angle,C Inside Temp (c),DFS Depth (m),DTB Height (m),Total Water Column (m),Batt Percent,Power Watts,Watt-Hours,Batt Volts,Batt Ampers,Batt State,Time to Empty,Current Step,Dist To Next (m),Next Speed (kn),Vehicle Speed (kn),Motor Speed CMD,Next Heading,Next Long,Next Lat,Next Depth (m),Depth Goal (m),Vehicle State,Error State,Distance to Track (m),Fin Pitch R,Fin Pitch L,Pitch Goal,Fin Yaw T,Fin Yaw B,Yaw Goal,Fin Roll,DVL-Depth (m),DVL -Altitude (m),DVL -Water Column (m),DVL-FixType,DVL-FixQuality,DVL-Temperature,Conductivity (mmhos/cm),Temperature (c),Salinity (ppt),Sound Speed (m/s),Date m/d/y   ,Time hh:mm:ss,Temp C,SpCond mS/cm,Sal ppt,Depth feet,pH,pH mV,Turbid+ NTU,Chl ug/L,BGA-PC cells/mL,ODOsat %,ODO mg/L,Battery volts,ROSEM Command Type
25.91273133,-80.13782033,29:28.5,10/7/22,8,0.108,319.79,-7.22131876,1.02,1,355.8,1.4,-5.69,33.5,0,3.17,3.17,95,22,510.9,16.3,-1.3,D,1550.5,0,4.624,1,0.06,128,284.78,-80.13786503,25.91274194,0,0,1,N,2.249775,65,65,11,5,5,262.3071,0,9999.99,3.18,3.307,2,9,29.4,0,29.39999962,40.6,1550.08944,10/7/22,11:02:04,27.87,60.63,40.6,1.085,8.2,-71.3,-1.1,-5.5,-5369,48.4,3.03,12.5,
25.91273075,-80.13782004,29:29.5,10/7/22,8,0.065,319.79,-7.22131876,1.02,0.4,355.19,1.24,-5.26,33.4,0,3.16,3.16,95,22,510.9,16.3,-1.3,D,1550.5,1,9.764,1,0.08,160,77.73,-80.13772464,25.9127494,0,0,1,N,1.503454,64,64,11,250,250,75.97535,0,9999.99,3.17,3.297,2,9,29.4,0,29.39999962,40.36,1549.83777,10/7/22,11:02:06,27.89,60.31,40.36,1.092,8.2,-71.2,-2.8,-0.5,-1902,48.4,3.03,12.4,
25.9127303,-80.13781959,29:30.5,10/7/22,8,0.105,319.79,-7.22131876,1.02,359.9,354.68,1.74,-0.37,33.5,0,3.16,3.16,95,25,510.9,16.3,-1.5,D,1340.4,1,9.732,1,0.08,160,77.39,-80.13772464,25.9127494,0,0,1,N,1.555769,69,69,11,250,250,75.61336,0,9999.99,3.17,3.297,2,9,29.4,0,29.39999962,40.3,1549.77486,10/7/22,11:02:07,27.89,60.23,40.3,1.086,8.2,-71.5,-2.3,-1.9,-302,48.4,3.03,12.5,
25.91273134,-80.13782011,29:31.5,10/7/22,8,0.26,319.79,-7.22131876,1.02,0.9,355.7,1.53,-2.75,33.5,0,3.13,3.13,95,25,510.9,16.3,-1.5,D,1340.4,1,9.757,1,0.03,160,78.12,-80.13772464,25.9127494,0,0,1,N,1.441756,66,66,11,250,250,76.40298,0,9999.99,3.15,3.277,2,9,29.4,0,29.39999962,40.25,1549.72243,10/7/22,11:02:08,27.88,60.17,40.25,1.122,8.2,-71.4,-2.8,-2.2,-1231,48.4,3.03,12.4,
25.91273404,-80.13782063,29:32.5,10/7/22,8,0.49,319.79,-7.22131876,1.02,2.1,356.93,1.56,-1.46,33.4,0,3.13,3.13,95,25,510.9,16.3,-1.5,D,1340.4,1,9.751,1,0.16,160,79.91,-80.13772464,25.9127494,0,0,1,N,1.147604,66,66,11,250,250,78.45539,0,9999.99,3.14,3.267,2,9,29.4,0,29.39999962,40.25,1549.72243,10/7/22,11:02:08,27.88,60.17,40.25,1.122,8.2,-71.4,-2.8,-2.2,-1231,48.4,3.03,12.4,
25.91273769,-80.13782197,29:33.5,10/7/22,8,0.693,319.79,-7.22131876,1.02,4.5,359.38,1.74,-1.26,33.4,0,3.04,3.04,95,25,510.9,16.3,-1.5,D,1340.4,1,9.822,1,0.34,160,82.38,-80.13772464,25.9127494,0,0,1,N,0.7481353,67,67,11,250,250,81.276,0,9999.99,3.05,3.177,2,9,29.4,0,29.39999962,40.48,1549.96361,10/7/22,11:02:09,27.82,60.46,40.48,1.112,8.2,-71.3,-2.2,-3.3,-1050,48.4,3.03,12.3,
25.91274127,-80.13782354,29:34.5,10/7/22,8,0.806,333.34,-7.22131876,1.02,8.8,3.78,2.26,-1.85,33.4,0,3.03,3.03,95,28,510.9,16.3,-1.7,D,1231,1,9.933,1,0.5,160,84.78,-80.13772464,25.9127494,0,0,1,N,0.3510073,71,71,11,250,250,84.10658,0,9999.99,3.05,3.177,2,9,29.4,0,29.39999962,40.5,1549.98458,10/7/22,11:02:11,27.74,60.49,40.5,1.109,8.2,-71.3,-2.7,1.7,-1717,48.4,3.03,12.5,
25.91274622,-80.13782563,29:35.5,10/7/22,8,0.882,340.62,-7.22131876,1.02,12.9,7.98,2.43,-1.99,33.4,0,2.99,2.99,95,28,510.9,16.3,-1.7,D,1231,1,10.107,1,0.63,160,87.99,-80.13772464,25.9127494,0,0,1,N,0.2076558,72,72,11,250,250,88.10593,0,9999.99,3.01,3.137,2,9,29.4,0,29.39999962,40.5,1549.98458,10/7/22,11:02:11,27.74,60.49,40.5,1.109,8.2,-71.3,-2.7,1.7,-1717,48.4,3.03,12.5,
25.9127504,-80.13782634,29:36.5,10/7/22,8,0.907,349.55,-7.22131876,1.02,19.2,14.43,2.32,-1.36,33.4,0,3,3,95,28,510.9,16.3,-1.7,D,1231,1,10.173,1,0.71,160,90.63,-80.13772464,25.9127494,0,0,1,N,0.6669986,71,71,11,250,250,91.38512,0,9999.99,3.02,3.147,2,9,29.4,0,29.39999962,40.56,1550.0475,10/7/22,11:02:12,27.71,60.56,40.56,1.096,8.2,-71.4,-2.1,-0.9,-3380,48.3,3.03,12.6,
25.91275515,-80.13782607,29:37.5,10/7/22,8,0.989,351.4,-7.22131876,1.02,24.5,19.84,2.43,-1.48,33.4,0,3.05,3.05,95,28,510.9,16.3,-1.7,D,1231,1,10.164,1,0.8,160,93.61,-80.13772464,25.9127494,0,0,1,N,1.188758,72,72,11,250,250,95.07122,0,9999.99,3.07,3.197,2,9,29.4,0,29.39999962,40.18,1549.64903,10/7/22,11:02:14,27.68,60.06,40.18,1.101,8.21,-71.7,-2.6,-5.3,-442,48.3,3.04,12.5,
25.91275951,-80.13782567,29:38.5,10/7/22,8,0.987,357.32,-7.22131876,1.02,29.9,25.34,2.69,-1.77,33.5,0,3.1,3.1,95,28,510.9,16.3,-1.7,D,1226,1,10.167,1,0.83,160,96.35,-80.13772464,25.9127494,0,0,1,N,1.676983,73,73,11,250,250,98.45882,0,9999.99,3.12,3.247,2,9,29.4,0,29.39999962,40.18,1549.64903,10/7/22,11:02:14,27.68,60.06,40.18,1.101,8.21,-71.7,-2.6,-5.3,-442,48.3,3.04,12.5,
25.91276347,-80.13782427,29:39.6,10/7/22,8,0.987,8.95,-7.22131876,1.02,35.5,31.03,3.11,-2.01,33.5,0,3.18,3.18,95,28,510.9,16.3,-1.7,D,1226,1,10.087,1,0.89,160,98.92,-80.13772464,25.9127494,0,0,1,N,2.109287,76,76,11,250,250,101.3897,0,9999.99,3.21,3.337,2,9,29.3,0,29.29999924,40,1549.25362,10/7/22,11:02:15,27.7,59.83,40,1.091,8.2,-71.5,-2.9,-2.3,-1959,48.2,3.04,12.5,
25.91276799,-80.13782129,29:40.6,10/7/22,8,0.951,15.15,-7.22131876,1.02,40.7,36.29,2.61,-1.05,33.5,0,3.37,3.37,95,28,510.9,16.3,-1.7,D,1226,1,9.885,1,0.92,160,102.07,-80.13772464,25.9127494,0,0,1,N,2.591315,73,73,11,250,250,104.5679,0,9999.99,3.4,3.527,2,9,29.3,0,29.29999924,40.09,1549.34805,10/7/22,11:02:17,27.66,59.95,40.09,1.101,8.19,-71,-3.1,-5.3,-1670,48.2,3.04,12.3,
25.9127722,-80.13781815,29:41.6,10/7/22,8,0.99,19.86,-7.22131876,1.02,45.5,41.12,2.61,-2.11,33.4,0,3.5,3.5,95,28,510.8,16.3,-1.7,D,1240.2,1,9.69,1,0.94,160,105.17,-80.13772464,25.9127494,0,0,1,N,3.042512,73,73,11,250,250,107.4416,0,9999.99,3.52,3.647,2,9,29.3,0,29.29999924,40.09,1549.34805,10/7/22,11:02:17,27.66,59.95,40.09,1.101,8.19,-71,-3.1,-5.3,-1670,48.2,3.04,12.3,
25.91277567,-80.13781514,29:42.6,10/7/22,8,1.053,26.23,-7.22131876,1.02,51.7,47.32,2.91,-0.69,33.4,0,3.64,3.64,95,28,510.8,16.3,-1.7,D,1240.2,1,9.512,1,0.94,160,107.89,-80.13772464,25.9127494,0,0,1,N,3.420259,74,74,11,250,250,109.7686,0,9999.99,3.67,3.797,2,9,29.3,0,29.29999924,40.09,1549.34805,10/7/22,11:02:18,27.63,59.95,40.09,1.097,8.2,-71.4,-3.4,0.3,-495,48.2,3.04,12.4,
25.91277958,-80.13781115,29:43.6,10/7/22,8,1.029,33.25,-7.22131876,1.02,56.2,51.79,2.96,-0.5,33.4,0,3.56,3.56,95,28,510.8,16.3,-1.7,D,1240.2,1,9.28,1,1.01,160,111.2,-80.13772464,25.9127494,0,0,1,N,3.83403,75,75,11,250,250,112.2256,0,9999.99,3.59,3.717,2,9,29.3,0,29.29999924,40.36,1549.63136,10/7/22,11:02:20,27.63,60.3,40.36,1.102,8.2,-71.3,-2.9,-2.4,-2741,48.3,3.04,12.4,
25.91278227,-80.13780706,29:44.6,10/7/22,8,0.961,40.66,-7.22131876,1.02,62,57.51,2.88,-1.45,33.4,0,3.6,3.6,95,28,510.8,16.3,-1.7,D,1240.2,1,9.017,1,0.98,160,113.91,-80.13772464,25.9127494,0,0,1,N,4.109082,75,75,11,250,250,113.8071,0,9999.99,3.63,3.757,2,9,29.3,0,29.29999924,40.08,1549.33756,10/7/22,11:02:21,27.65,59.93,40.08,1.111,8.2,-71.3,-2.9,-6.1,-1281,48.3,3.04,12.2,
25.91278481,-80.13780291,29:45.6,10/7/22,8,0.998,47.7,-7.22131876,1.02,66.7,62.11,2.88,-1.22,33.5,0,3.7,3.7,95,28,510.8,16.3,-1.7,D,1233.7,1,8.763,1,1.01,160,116.7,-80.13772464,25.9127494,0,0,1,N,4.375829,74,74,11,250,250,115.2959,0,9999.99,3.73,3.857,2,9,29.2,0,29.29999924,40.05,1549.30608,10/7/22,11:02:22,27.64,59.89,40.05,1.103,8.2,-71.2,-2.5,-5.9,-3993,48.2,3.04,12.4,
25.91278675,-80.1377982,29:46.6,10/7/22,8,1.009,54.23,-7.22131876,1.02,71.3,66.58,3.09,-1.68,33.5,0,3.69,3.69,95,28,510.8,16.3,-1.7,D,1233.7,1,8.448,1,1.01,160,119.44,-80.13772464,25.9127494,0,0,1,N,4.566989,76,76,11,250,250,116.3409,0,9999.99,3.72,3.847,2,9,29.2,0,29.29999924,40.05,1549.30608,10/7/22,11:02:22,27.64,59.89,40.05,1.103,8.2,-71.2,-2.5,-5.9,-3993,48.2,3.04,12.4,
25.91278877,-80.1377937,29:47.6,10/7/22,8,1.053,59.66,-7.22131876,1.02,76.1,71.21,3.1,-1.19,33.5,0,3.69,3.69,95,28,510.8,16.3,-1.7,D,1233.7,1,8.178,1,1.03,160,122.37,-80.13772464,25.9127494,0,0,1,N,4.768774,76,76,11,250,250,117.4184,0,9999.99,3.72,3.847,2,9,29.2,0,29.20000076,40.18,1549.23532,10/7/22,11:02:23,27.62,60.06,40.18,1.101,8.2,-71.1,-3.2,-4.3,-605,48.2,3.04,12.3,
25.9127901,-80.13778892,29:48.6,10/7/22,8,1.01,65.64,-7.22131876,1.02,81.9,76.76,2.91,-1.62,33.5,0,3.67,3.67,95,28,510.8,16.3,-1.7,D,1234.4,1,7.863,1,1.07,160,125.14,-80.13772464,25.9127494,0,0,1,N,4.8947,75,75,11,250,250,118.0788,0,9999.99,3.7,3.827,2,9,29.2,0,29.20000076,40.25,1549.30881,10/7/22,11:02:25,27.61,60.15,40.25,1.096,8.2,-71.1,-2.1,0.5,-1896,48,3.02,12.2,
25.91279088,-80.13778319,29:49.6,10/7/22,8,1.02,72.08,-7.22131876,1.02,86.7,81.32,3,-1.05,33.5,0,3.64,3.64,95,28,510.8,16.3,-1.7,D,1234.4,1,7.455,1,1.08,160,128.23,-80.13772464,25.9127494,0,0,1,N,4.95255,75,75,11,250,250,118.3789,0,9999.99,3.67,3.797,2,9,29.2,0,29.20000076,40.25,1549.30881,10/7/22,11:02:25,27.61,60.15,40.25,1.096,8.2,-71.1,-2.1,0.5,-1896,48,3.02,12.2,
25.91279156,-80.13777776,29:50.6,10/7/22,8,1.159,76.79,-7.22131876,1.02,91.4,85.76,2.9,-1.37,33.5,0,3.64,3.64,95,28,510.8,16.3,-1.7,D,1234.4,2,23.524,1,1.08,160,102.88,-80.13754847,25.91274442,0,0,1,N,5.002276,74,74,11,215,215,107.8171,0,9999.99,3.67,3.797,2,9,29.2,0,29.20000076,40.16,1549.21432,10/7/22,11:02:26,27.64,60.03,40.16,1.102,8.2,-71.3,-3.6,1.2,-1344,47.9,3.02,12.4,
25.9127913,-80.137772,29:51.6,10/7/22,8,1.191,81.59,-7.22131876,1.02,96,90.07,3.23,-1.79,33.4,0,3.66,3.66,95,28,510.8,16.3,-1.7,D,1234.4,2,22.957,1,1.13,160,103.12,-80.13754847,25.91274442,0,0,1,N,4.514071,76,76,11,209,209,110.6182,0,9999.99,3.69,3.817,2,9,29.2,0,29.20000076,39.9,1548.94133,10/7/22,11:02:28,27.6,59.69,39.9,1.088,8.19,-71,-2.6,-7,-95,47.9,3.02,12.4,
25.91279079,-80.13776579,29:52.6,10/7/22,8,1.227,87.21,-7.22131876,1.02,102,95.68,2.74,-1.49,33.5,0,3.55,3.55,95,28,510.8,16.3,-1.7,D,1222.9,2,22.339,1,1.16,160,103.34,-80.13754847,25.91274442,0,0,1,N,4.487244,73,73,11,190,190,111.4037,0,9999.99,3.57,3.697,2,9,29.2,0,29.20000076,39.9,1548.94133,10/7/22,11:02:28,27.6,59.69,39.9,1.088,8.19,-71,-2.6,-7,-95,47.9,3.02,12.4,
25.91278973,-80.13775908,29:53.6,10/7/22,8,1.257,94.07,-7.22131876,1.02,105.3,98.74,2.94,-2.25,33.5,0,3.55,3.55,95,28,510.8,16.3,-1.7,D,1222.9,2,21.658,1,1.22,160,103.45,-80.13754847,25.91274442,0,0,1,N,4.393347,75,75,11,180,180,112.0831,0,9999.99,3.57,3.697,2,9,29.2,0,29.20000076,40.17,1549.22482,10/7/22,11:02:29,27.59,60.04,40.17,1.108,8.19,-70.8,-2.6,-1,-509,47.8,3.01,12.3,
25.912788,-80.13775251,29:54.6,10/7/22,8,1.316,99.57,-7.22131876,1.02,109.3,102.45,2.66,-2.26,33.5,0,3.56,3.56,95,28,510.8,16.3,-1.7,D,1222.9,2,20.975,1,1.27,159,103.36,-80.13754847,25.91274442,0,0,1,N,4.230003,73,73,11,169,169,112.4832,0,9999.99,3.58,3.707,2,9,29.1,0,29.20000076,40.04,1549.08832,10/7/22,11:02:31,27.56,59.88,40.04,1.077,8.19,-70.7,-1,0.6,-3018,47.7,3.01,12.4,
25.91278554,-80.13774575,29:55.6,10/7/22,8,1.382,104.13,-7.22131876,1.02,111.6,104.58,2.54,-2.34,33.5,0,3.52,3.52,95,28,510.8,16.3,-1.7,D,1235.6,2,20.255,1,1.34,159,103.05,-80.13754847,25.91274442,0,0,1,N,3.982483,72,72,11,159,159,112.5967,0,9999.99,3.54,3.667,2,9,29.1,0,29.20000076,40.04,1549.08832,10/7/22,11:02:31,27.56,59.88,40.04,1.077,8.19,-70.7,-1,0.6,-3018,47.7,3.01,12.4,
25.91278286,-80.13773791,29:56.6,10/7/22,8,1.433,107.54,-7.22131876,1.02,114,106.8,2.05,-2.93,33.5,0,3.49,3.49,95,28,510.8,16.3,-1.7,D,1235.6,2,19.424,1,1.39,159,102.71,-80.13754847,25.91274442,0,0,1,N,3.708997,69,69,11,151,151,112.8544,0,9999.99,3.51,3.637,2,9,29.1,0,29.10000038,40.16,1549.00649,10/7/22,11:02:32,27.54,60.03,40.16,1.092,8.19,-70.6,-3,0.5,-3111,47.5,3,12.5,
25.91278032,-80.13773124,29:57.6,10/7/22,8,1.438,110.84,-7.22131876,1.02,115.6,108.28,1.9,-1.02,33.4,0,3.48,3.48,95,28,510.8,16.3,-1.7,D,1235.6,2,18.711,1,1.39,158,102.32,-80.13754847,25.91274442,0,0,1,N,3.449236,68,68,11,146,146,112.9647,0,9999.99,3.5,3.627,2,9,29.1,0,29.10000038,40.32,1549.1746,10/7/22,11:02:34,27.49,60.24,40.32,1.084,8.18,-70.4,-2.8,-2.9,-2438,47,2.96,12.5,
25.9127771,-80.13772492,29:58.6,10/7/22,8,1.414,114.79,-7.22131876,1.02,116.1,108.75,2.01,-1.61,33.4,0,3.48,3.48,95,28,510.8,16.3,-1.7,D,1235.6,2,18.018,1,1.43,158,101.63,-80.13754847,25.91274442,0,0,1,N,3.11697,69,69,11,142,142,112.5452,0,9999.99,3.5,3.627,2,9,29.1,0,29.10000038,40.35,1549.20612,10/7/22,11:02:35,27.49,60.28,40.35,1.123,8.18,-70.3,-2.2,-2.2,-4140,46.6,2.94,12.4,
25.91277349,-80.13771817,29:59.6,10/7/22,8,1.46,115.92,-7.22131876,1.02,116.5,109.12,2.06,-3.15,33.5,0,3.48,3.48,95,27,510.7,16.3,-1.6,D,1274.9,2,17.279,1,1.48,157,100.78,-80.13754847,25.91274442,0,0,1,N,2.741479,69,69,11,133,133,110.7143,0,9999.99,3.5,3.627,2,9,29.1,0,29.10000038,40.06,1548.90142,10/7/22,11:02:36,27.5,59.9,40.06,1.079,8.18,-70.2,-1.4,-2.5,-3656,46.3,2.93,12.4,
25.91276993,-80.13771191,30:00.6,10/7/22,8,1.513,118.38,-7.22131876,1.02,116.5,109.12,1.8,-0.74,33.5,0,3.47,3.47,95,27,510.7,16.3,-1.6,D,1274.9,2,16.592,1,1.49,156,99.85,-80.13754847,25.91274442,0,0,1,N,2.35625,68,68,11,123,123,108.2123,0,9999.99,3.49,3.617,2,9,29.1,0,29.10000038,40.06,1548.90142,10/7/22,11:02:36,27.5,59.9,40.06,1.079,8.18,-70.2,-1.4,-2.5,-3656,46.3,2.93,12.4,
25.912766,-80.13770513,30:01.6,10/7/22,8,1.466,120.48,-7.22131876,1.02,116.5,109.12,1.85,-2.07,33.5,0,3.49,3.49,95,27,510.7,16.3,-1.6,D,1274.9,2,15.851,1,1.48,156,98.71,-80.13754847,25.91274442,0,0,1,N,1.945658,68,68,11,112,112,105.4707,0,9999.99,3.51,3.637,2,9,29.1,0,29.10000038,39.74,1548.56523,10/7/22,11:02:37,27.47,59.48,39.74,1.126,8.18,-70.2,-0.4,1.1,-2121,46,2.91,12.3,
25.91276244,-80.13769972,30:02.6,10/7/22,8,1.437,122.24,-7.22131876,1.02,116.3,108.93,2.02,-2.3,33.5,0,3.49,3.49,95,26,510.7,16.3,-1.6,D,1310.9,2,15.259,1,1.45,155,97.55,-80.13754847,25.91274442,0,0,1,N,1.564663,69,69,11,103,103,102.8664,0,9999.99,3.51,3.637,2,9,29.1,0,29.10000038,40.09,1548.93294,10/7/22,11:02:39,27.44,59.93,40.09,1.11,8.18,-70.2,-0.6,-0.1,-2596,45.1,2.85,12.4,
25.91275864,-80.13769325,30:03.6,10/7/22,8,1.451,119.8,-7.22131876,1.02,116,108.65,1.8,-1.96,33.5,0,3.49,3.49,95,26,510.7,16.3,-1.6,D,1310.9,2,14.567,1,1.45,154,96.23,-80.13754847,25.91274442,0,0,1,N,1.156983,68,68,11,93,93,100.0291,0,9999.99,3.51,3.637,2,9,29.1,0,29.10000038,40.09,1548.93294,10/7/22,11:02:39,27.44,59.93,40.09,1.11,8.18,-70.2,-0.6,-0.1,-2596,45.1,2.85,12.4,
25.91275516,-80.1376876,30:04.6,10/7/22,8,1.426,120.58,-7.22131876,1.02,115.1,107.82,1.93,-2.34,33.4,0,3.49,3.49,95,26,510.7,16.3,-1.6,D,1310.9,2,13.967,1,1.47,154,94.9,-80.13754847,25.91274442,0,0,1,N,0.7878308,69,69,11,85,85,97.42437,0,9999.99,3.51,3.637,2,9,29.1,0,29.10000038,39.73,1548.55472,10/7/22,11:02:40,27.46,59.46,39.73,1.132,8.18,-69.9,-2.3,0.2,-3412,44.7,2.83,12.3,
25.91275163,-80.13768169,30:05.6,10/7/22,8,1.429,120.51,-7.22131876,1.02,113.6,106.43,1.77,-2.03,33.4,0,3.48,3.48,95,26,510.7,16.3,-1.6,D,1310.9,2,13.349,1,1.46,153,93.44,-80.13754847,25.91274442,0,0,1,N,0.4170595,68,68,11,80,80,94.78428,0,9999.99,3.5,3.627,2,9,29.1,0,29.10000038,39.8,1548.62826,10/7/22,11:02:42,27.41,59.55,39.8,1.127,8.17,-69.8,-1.8,-0.9,-1714,43.9,2.78,12.5,
25.91274824,-80.13767563,30:06.6,10/7/22,8,1.402,121.56,-7.22131876,1.02,111.5,104.49,1.92,-2.02,33.4,0,3.49,3.49,95,25,510.7,16.3,-1.5,D,1374.4,2,12.726,1,1.43,152,91.91,-80.13754847,25.91274442,0,0,1,N,5.45E-02,69,69,11,77,77,92.19009,0,9999.99,3.51,3.637,2,9,29.1,0,29.10000038,39.8,1548.62826,10/7/22,11:02:42,27.41,59.55,39.8,1.127,8.17,-69.8,-1.8,-0.9,-1714,43.9,2.78,12.5,
25.91274444,-80.13766998,30:07.6,10/7/22,8,1.369,122.73,-7.22131876,1.02,109.6,102.73,1.98,-2.92,33.4,0,3.48,3.48,95,25,510.7,16.3,-1.5,D,1374.4,2,12.153,1,1.41,152,90.01,-80.13754847,25.91274442,0,0,1,N,0.3524706,69,69,11,72,72,89.27721,0,9999.99,3.5,3.627,2,9,29,0,29.10000038,39.89,1548.72282,10/7/22,11:02:43,27.42,59.67,39.89,1.122,8.18,-69.9,-2.1,-1.9,-1086,43.4,2.75,12.4,
25.91274077,-80.13766368,30:08.6,10/7/22,8,1.408,120.23,-7.22131876,1.02,107.5,100.79,2.07,-2.89,33.5,0,3.48,3.48,95,25,510.7,16.3,-1.5,D,1374.4,2,11.53,1,1.39,151,87.98,-80.13754847,25.91274442,0,0,1,N,0.7399232,69,69,11,70,70,86.51576,0,9999.99,3.5,3.627,2,9,29,0,29,39.81,1548.43006,10/7/22,11:02:45,27.41,59.56,39.81,1.142,8.18,-70.1,-1.3,0.1,-3312,42.6,2.7,12.4,
25.9127381,-80.13765842,30:09.6,10/7/22,8,1.297,119.46,-7.22131876,1.02,105.5,98.93,1.74,-3.04,33.5,0,3.47,3.47,95,25,510.7,16.3,-1.5,D,1378.9,2,11.02,1,1.39,151,86.34,-80.13754847,25.91274442,0,0,1,N,1.022764,67,67,11,69,69,84.51477,0,9999.99,3.49,3.617,2,9,29,0,29,39.81,1548.43006,10/7/22,11:02:45,27.41,59.56,39.81,1.142,8.18,-70.1,-1.3,0.1,-3312,42.6,2.7,12.4,
25.91273564,-80.13765246,30:10.6,10/7/22,8,1.268,118.17,-7.22131876,1.02,102.9,96.51,1.84,-2.65,33.4,0,3.44,3.44,95,25,510.7,16.3,-1.5,D,1388.7,2,10.446,1,1.38,151,84.64,-80.13754847,25.91274442,0,0,1,N,1.282861,68,68,11,71,71,82.6898,0,9999.99,3.46,3.587,2,9,29,0,29,39.91,1548.53519,10/7/22,11:02:46,27.43,59.69,39.91,1.118,8.17,-69.7,-2.7,-0.7,-2743,42.1,2.67,12.4,
25.91273325,-80.13764644,30:11.6,10/7/22,8,1.245,117.25,-7.22131876,1.02,100.4,94.18,1.85,-3.46,33.4,0,3.43,3.43,95,25,510.7,16.3,-1.5,D,1388.7,2,9.877,1,1.33,150,82.78,-80.13754847,25.91274442,0,0,1,N,1.53259,69,69,11,73,73,80.95517,0,9999.99,3.45,3.577,2,9,29,0,29,39.56,1548.16724,10/7/22,11:02:47,27.43,59.23,39.56,1.115,8.17,-69.6,-2.1,-3.3,-717,41.7,2.65,12.4,
25.91273095,-80.13764016,30:12.6,10/7/22,8,1.204,113.93,-7.22131876,1.02,97.9,91.85,1.86,-2.86,33.5,0,3.38,3.38,95,25,510.7,16.3,-1.5,D,1388.7,2,9.292,1,1.26,150,80.72,-80.13754847,25.91274442,0,0,1,N,1.771392,68,68,11,77,77,79.31497,0,9999.99,3.4,3.527,2,9,29,0,29,40.19,1548.82957,10/7/22,11:02:49,27.42,60.07,40.19,1.12,8.18,-69.9,-1.4,1.2,-1243,41,2.59,12.3,
25.91272877,-80.13763429,30:13.6,10/7/22,8,1.231,109.83,-7.22131876,1.02,95.9,89.98,1.75,-3.58,33.5,0,3.33,3.33,95,24,510.6,16.3,-1.5,D,1408,2,8.758,1,1.23,150,78.54,-80.13754847,25.91274442,0,0,1,N,1.994314,67,67,11,78,78,77.80195,0,9999.99,3.35,3.477,2,9,29,0,29,40.19,1548.82957,10/7/22,11:02:49,27.42,60.07,40.19,1.12,8.18,-69.9,-1.4,1.2,-1243,41,2.59,12.3,
25.91272701,-80.13762907,30:14.6,10/7/22,8,1.198,109.31,-7.22131876,1.02,93.4,87.64,1.75,-3.45,33.5,0,3.3,3.3,95,24,510.6,16.3,-1.5,D,1408,2,8.291,1,1.23,150,76.49,-80.13754847,25.91274442,0,0,1,N,2.178654,67,67,11,82,82,76.56666,0,9999.99,3.32,3.447,2,9,29,0,29,39.71,1548.32493,10/7/22,11:02:50,27.44,59.43,39.71,1.109,8.18,-69.8,-0.9,-0.1,-843,40.7,2.58,12.5,
25.9127254,-80.13762315,30:15.6,10/7/22,8,1.142,109.31,-7.22131876,1.02,91.1,85.47,1.74,-4.24,33.5,0,3.28,3.28,95,24,510.6,16.3,-1.4,D,1424,2,7.763,1,1.2,149,74.19,-80.13754847,25.91274442,0,0,1,N,2.338414,67,67,11,85,85,75.50652,0,9999.99,3.3,3.427,2,9,29,0,29,40.02,1548.65083,10/7/22,11:02:52,27.41,59.83,40.02,1.1,8.17,-69.8,-1.1,0.4,-2728,40,2.53,12.6,
25.91272364,-80.13761766,30:16.6,10/7/22,8,1.145,108.05,-7.22131876,1.02,89.1,83.59,1.8,-3.84,33.5,0,3.25,3.25,95,24,510.6,16.3,-1.4,D,1424,2,7.296,1,1.19,149,71.53,-80.13754847,25.91274442,0,0,1,N,2.517584,68,68,11,90,90,74.33054,0,9999.99,3.27,3.397,2,9,29,0,29,40.02,1548.65083,10/7/22,11:02:52,27.41,59.83,40.02,1.1,8.17,-69.8,-1.1,0.4,-2728,40,2.53,12.6,
25.9127222,-80.13761195,30:17.6,10/7/22,8,1.146,104.43,-7.22131876,1.02,87,81.6,1.65,-4.03,33.5,0,3.25,3.25,95,24,510.6,16.3,-1.4,D,1424,2,6.814,1,1.18,149,68.74,-80.13754847,25.91274442,0,0,1,N,2.661416,67,67,11,93,93,73.40031,0,9999.99,3.26,3.387,2,9,29,0,29,39.27,1547.86239,10/7/22,11:02:53,27.43,58.85,39.27,1.119,8.17,-69.6,-1.3,-5.6,-1220,39.7,2.52,12.3,
25.91272109,-80.1376052,30:18.6,10/7/22,8,1.134,101.87,-7.22131876,1.02,85.2,79.9,1.65,-3.21,33.5,0,3.22,3.22,95,24,510.6,16.3,-1.4,D,1420.2,2,6.239,1,1.12,149,65.43,-80.13754847,25.91274442,0,0,1,N,2.765556,67,67,11,98,98,72.7309,0,9999.99,3.23,3.357,2,9,29,0,29,39.56,1548.16724,10/7/22,11:02:54,27.39,59.23,39.56,1.104,8.17,-69.5,-2,-2.4,-1089,39.5,2.5,12.6,
25.91272019,-80.13759943,30:19.6,10/7/22,8,1.113,102.69,-7.22131876,1.02,83.8,78.57,1.8,-2.32,33.5,0,3.17,3.17,95,24,510.6,16.3,-1.4,D,1420.2,3,21.013,1,1.1,149,127.55,-80.13743286,25.91260502,0,0,1,N,5.748504,68,68,11,250,250,110.9523,0,9999.99,3.19,3.317,2,9,29,0,29,39.57,1548.17775,10/7/22,11:02:56,27.41,59.25,39.57,1.114,8.18,-69.8,-1.3,0.7,651,39,2.47,12.5,
25.91271927,-80.13759455,30:20.6,10/7/22,8,1.031,104.14,-7.22131876,1.02,84.5,79.23,1.76,-2,33.5,0,3.13,3.13,95,24,510.6,16.3,-1.4,D,1420.2,3,20.565,1,1.08,149,128.15,-80.13743286,25.91260502,0,0,1,N,5.409587,68,68,11,250,250,111.2592,0,9999.99,3.15,3.277,2,9,29,0,29,39.57,1548.17775,10/7/22,11:02:56,27.41,59.25,39.57,1.114,8.18,-69.8,-1.3,0.7,651,39,2.47,12.5,
25.9127192,-80.13758866,30:21.6,10/7/22,8,1.032,91.94,-7.22131876,1.02,88.1,82.64,1.76,-2.35,33.5,0,3.1,3.1,95,24,510.6,16.3,-1.4,D,1420.2,3,20.101,1,1.06,149,129.17,-80.13743286,25.91260502,0,0,1,N,4.939539,68,68,11,248,248,112.3706,0,9999.99,3.12,3.247,2,9,29,0,29,39.61,1548.2198,10/7/22,11:02:57,27.4,59.3,39.61,1.112,8.18,-69.9,-2,-1.2,-4002,38.8,2.46,12.3,
25.91271884,-80.13758311,30:22.6,10/7/22,8,1.029,92.93,-7.22131876,1.02,90.8,85.19,1.99,-4.08,33.5,0,3.06,3.06,95,24,510.6,16.3,-1.4,D,1424.8,3,19.647,1,1.03,149,130.1,-80.13743286,25.91260502,0,0,1,N,4.521083,69,69,11,241,241,113.7697,0,9999.99,3.08,3.207,2,9,29,0,29,39.46,1548.06212,10/7/22,11:02:59,27.41,59.1,39.46,1.116,8.17,-69.7,-1.6,-3.6,-1702,38.4,2.43,12.5,
25.91271829,-80.13757737,30:23.6,10/7/22,8,1.018,95.45,-7.22131876,1.02,94,88.2,1.8,-2.14,33.5,0,3.04,3.04,95,24,510.6,16.3,-1.4,D,1424.8,3,19.171,1,1,149,131.07,-80.13743286,25.91260502,0,0,1,N,4.092566,68,68,11,239,239,116.1872,0,9999.99,3.06,3.187,2,9,29,0,29,39.46,1548.06212,10/7/22,11:02:59,27.41,59.1,39.46,1.116,8.17,-69.7,-1.6,-3.6,-1702,38.4,2.43,12.5,
25.91271748,-80.13757236,30:24.6,10/7/22,8,0.944,98.48,-7.22131876,1.02,96.2,90.26,2.04,-3.41,33.5,0,3.02,3.02,95,24,510.6,16.3,-1.4,D,1424.8,3,18.737,1,1,149,131.87,-80.13743286,25.91260502,0,0,1,N,3.738571,69,69,11,239,239,118.2387,0,9999.99,3.04,3.167,2,9,29,0,29,39.71,1548.32493,10/7/22,11:03:00,27.4,59.43,39.71,1.11,8.17,-69.6,-1.3,-2,-1280,38.2,2.42,12.5,
25.91271614,-80.13756778,30:25.6,10/7/22,8,0.987,99.71,-7.22131876,1.02,98.4,92.32,2.05,-4.63,33.4,0,2.99,2.99,95,24,510.6,16.3,-1.4,D,1424.8,3,18.296,1,0.98,149,132.48,-80.13743286,25.91260502,0,0,1,N,3.459809,69,69,11,238,238,119.8931,0,9999.99,3.01,3.137,2,9,29,0,29,39.42,1548.02007,10/7/22,11:03:02,27.43,59.05,39.42,1.112,8.18,-70,-2.5,0.4,-1571,38.1,2.42,12.4,
25.9127155,-80.13756268,30:26.6,10/7/22,8,0.971,97.16,-7.22131876,1.02,100.6,94.37,1.87,-3.18,33.4,0,2.97,2.97,95,24,510.6,16.3,-1.4,D,1418.2,3,17.875,1,0.98,149,133.42,-80.13743286,25.91260502,0,0,1,N,3.095876,68,68,11,239,239,122.1247,0,9999.99,2.99,3.117,2,9,29,0,29,39.42,1548.02007,10/7/22,11:03:02,27.43,59.05,39.42,1.112,8.18,-70,-2.5,0.4,-1571,38.1,2.42,12.4,
25.91271468,-80.13755713,30:27.6,10/7/22,8,1.036,98.54,-7.22131876,1.02,102.7,96.33,1.63,-2.73,33.4,0,2.96,2.96,95,24,510.6,16.3,-1.4,D,1418.2,3,17.412,1,0.99,149,134.45,-80.13743286,25.91260502,0,0,1,N,2.704019,68,68,11,242,242,124.6029,0,9999.99,2.97,3.097,2,9,28.9,0,29,39.47,1548.07263,10/7/22,11:03:03,27.47,59.12,39.47,1.108,8.18,-70.3,-2.8,-5.1,-1212,38.2,2.42,12.4,
25.91271323,-80.13755222,30:28.6,10/7/22,8,0.914,102.59,-7.22131876,1.02,105.1,98.56,1.75,-3.28,33.4,0,2.9,2.9,95,24,510.6,16.3,-1.4,D,1418.2,3,16.95,1,1,149,135.23,-80.13743286,25.91260502,0,0,1,N,2.403074,67,67,11,239,239,126.5595,0,9999.99,2.92,3.047,2,9,28.9,0,28.89999962,39.23,1547.61058,10/7/22,11:03:04,27.49,58.81,39.23,1.098,8.19,-70.5,-1.4,1.2,-1962,38.3,2.43,12.4,
25.9127117,-80.13754749,30:29.7,10/7/22,8,0.944,106.38,-7.22131876,1.02,107.6,100.88,1.65,-3.01,33.4,0,2.82,2.82,95,24,510.5,16.3,-1.4,D,1443.1,3,16.497,1,1,149,135.98,-80.13743286,25.91260502,0,0,1,N,2.127666,67,67,11,239,239,128.3858,0,9999.99,2.83,2.957,2,9,29,0,28.89999962,39.46,1547.85251,10/7/22,11:03:05,27.51,59.1,39.46,1.118,8.18,-70.2,-1.5,-6.1,-1432,38.4,2.43,12.4,
25.91271003,-80.13754305,30:30.7,10/7/22,8,0.976,105.71,-7.22131876,1.02,110.2,103.29,1.88,-3.79,33.5,0,2.76,2.76,95,24,510.5,16.3,-1.4,D,1443.1,3,16.056,1,0.99,149,136.66,-80.13743286,25.91260502,0,0,1,N,1.880408,68,68,11,234,234,130.0517,0,9999.99,2.78,2.907,2,9,28.9,0,29,39.21,1547.79932,10/7/22,11:03:07,27.52,58.78,39.21,1.109,8.18,-70.3,-2.3,-2.2,-3301,38.8,2.46,12.4,
25.91270844,-80.13753714,30:31.7,10/7/22,7,1.046,104.3,-7.22131876,1.13,113.7,106.53,1.88,-3.94,33.4,0,2.66,2.66,95,24,510.5,16.3,-1.4,D,1443.1,3,15.525,1,0.98,149,137.79,-80.13743286,25.91260502,0,0,1,N,1.507811,68,68,11,231,231,132.6045,0,9999.99,2.68,2.807,2,9,28.9,0,29,39.21,1547.79932,10/7/22,11:03:07,27.52,58.78,39.21,1.109,8.18,-70.3,-2.3,-2.2,-3301,38.8,2.46,12.4,
25.9127071,-80.13753181,30:32.7,10/7/22,7,0.982,106.63,-7.22131876,1.13,116.7,109.3,1.67,-2.94,33.4,0,2.57,2.57,95,24,510.5,16.3,-1.4,D,1443.1,3,15.059,1,0.98,149,138.92,-80.13743286,25.91260502,0,0,1,N,1.167206,67,67,11,230,230,134.9774,0,9999.99,2.58,2.707,2,9,29,0,28.89999962,38.93,1547.29503,10/7/22,11:03:08,27.56,58.41,38.93,1.109,8.19,-70.6,-1.5,-1.1,-2808,39.1,2.48,12.5,
25.91270517,-80.13752756,30:33.7,10/7/22,8,0.91,112.79,-7.22131876,1.02,120,112.35,2.03,-3.75,33.4,0,2.52,2.52,95,24,510.5,16.3,-1.4,D,1418,3,14.619,1,0.96,149,139.62,-80.13743286,25.91260502,0,0,1,N,0.9546344,69,69,11,223,223,136.4739,0,9999.99,2.54,2.667,2,9,29,0,29,39.03,1547.61012,10/7/22,11:03:10,27.55,58.54,39.03,1.12,8.19,-70.6,-1.8,-1.8,-1353,39.7,2.52,12.4,
25.91270232,-80.13752226,30:34.8,10/7/22,7,1,113.77,-7.22131876,1.13,124.1,116.15,1.91,-3.96,33.4,0,2.44,2.44,95,24,510.5,16.3,-1.4,D,1418,3,14.036,1,0.96,149,140.43,-80.13743286,25.91260502,0,0,1,N,0.7169264,68,68,11,215,215,138.1577,0,9999.99,2.46,2.587,2,9,28.9,0,29,39.03,1547.61012,10/7/22,11:03:10,27.55,58.54,39.03,1.12,8.19,-70.6,-1.8,-1.8,-1353,39.7,2.52,12.4,
25.91270005,-80.13751799,30:35.8,10/7/22,7,1.055,114.57,-7.22131876,1.13,126.6,118.46,2.03,-3.87,33.4,0,2.43,2.43,95,24,510.5,16.3,-1.4,D,1418,3,13.571,1,0.97,149,141.14,-80.13743286,25.91260502,0,0,1,N,0.5226092,69,69,11,211,211,139.541,0,9999.99,2.45,2.577,2,9,29,0,28.89999962,39.11,1547.48436,10/7/22,11:03:11,27.52,58.65,39.11,1.111,8.19,-70.9,-1.3,-2.4,-2213,40,2.54,12.4,
25.91269754,-80.13751368,30:36.8,10/7/22,8,0.962,120.1,-7.22131876,1.02,130,121.61,1.87,-3.98,33.4,0,2.36,2.36,95,24,510.5,16.3,-1.4,D,1440,3,13.083,1,0.96,149,141.84,-80.13743286,25.91260502,0,0,1,N,0.3442429,68,68,11,204,204,140.8146,0,9999.99,2.38,2.507,2,9,29,0,29,39.14,1547.72574,10/7/22,11:03:13,27.51,58.69,39.14,1.108,8.19,-70.6,-2,-4,-3047,40.6,2.58,12.4,
25.91269467,-80.13750967,30:37.8,10/7/22,8,1.009,125.69,-7.22131876,1.02,133.5,124.87,1.78,-3.97,33.5,0,2.31,2.31,95,24,510.5,16.3,-1.4,D,1440,3,12.585,1,0.98,149,142.38,-80.13743286,25.91260502,0,0,1,N,0.210674,69,69,11,198,198,141.77,0,9999.99,2.33,2.457,2,9,29,0,29,39.14,1547.72574,10/7/22,11:03:13,27.51,58.69,39.14,1.108,8.19,-70.6,-2,-4,-3047,40.6,2.58,12.4,
25.9126917,-80.13750565,30:38.8,10/7/22,8,0.945,125.69,-7.22131876,1.02,136,127.2,1.93,-3.96,33.4,0,2.28,2.28,95,24,510.5,16.3,-1.4,D,1440,3,12.079,1,0.99,149,142.94,-80.13743286,25.91260502,0,0,1,N,8.24E-02,69,69,11,190,190,142.6881,0,9999.99,2.3,2.427,2,9,29,0,29,39.16,1547.74676,10/7/22,11:03:14,27.53,58.71,39.16,1.104,8.19,-70.4,-1.9,-2.5,-574,40.9,2.6,12.4,
25.91268853,-80.13750088,30:39.8,10/7/22,8,1.025,125.36,-7.22131876,1.02,139,130,1.8,-3.82,33.5,0,2.27,2.27,95,24,510.5,16.3,-1.4,D,1440,3,11.512,1,0.99,149,143.77,-80.13743286,25.91260502,0,0,1,N,9.00E-02,68,68,11,183,183,143.923,0,9999.99,2.29,2.417,2,9,29,0,29,39.16,1547.74676,10/7/22,11:03:15,27.51,58.7,39.16,1.111,8.19,-70.7,-2.2,-1.5,-685,41.3,2.62,12.5,
25.91268539,-80.13749721,30:40.8,10/7/22,8,0.952,125.36,-7.22131876,1.02,142,132.81,1.94,-4.16,33.4,0,2.24,2.24,95,24,510.5,16.3,-1.4,D,1420.7,3,11.013,1,1,149,144.24,-80.13743286,25.91260502,0,0,1,N,0.1769463,69,69,11,175,175,144.5455,0,9999.99,2.26,2.387,2,9,29,0,29,39.04,1547.62063,10/7/22,11:03:17,27.51,58.55,39.04,1.097,8.19,-70.7,-1.3,2.1,-2812,41.7,2.65,12.3,
25.912682,-80.13749363,30:41.8,10/7/22,8,1.008,125.36,-7.22131876,1.02,144.7,135.35,1.8,-4.19,33.5,0,2.27,2.27,95,24,510.5,16.3,-1.4,D,1420.7,3,10.499,1,1,149,144.62,-80.13743286,25.91260502,0,0,1,N,0.2410664,67,67,11,167,167,145.0045,0,9999.99,2.28,2.407,2,9,29,0,29,39.04,1547.62063,10/7/22,11:03:17,27.51,58.55,39.04,1.097,8.19,-70.7,-1.3,2.1,-2812,41.7,2.65,12.3,
25.91267777,-80.13749091,30:42.8,10/7/22,8,1.003,125.36,-7.22131876,1.02,145.9,136.48,1.68,-3.37,33.5,0,2.26,2.26,95,24,510.5,16.3,-1.4,D,1420.7,3,9.958,1,1,149,144.33,-80.13743286,25.91260502,0,0,1,N,0.1790729,67,67,11,159,159,144.5608,0,9999.99,2.27,2.397,2,9,29,0,29,38.86,1547.43144,10/7/22,11:03:19,27.52,58.31,38.86,1.124,8.19,-70.7,-1.7,1.8,-4233,42.2,2.68,12.4,
25.91267359,-80.13748772,30:43.8,10/7/22,8,1.057,125.36,-7.22131876,1.02,147.5,137.99,1.79,-3.98,33.4,0,2.25,2.25,95,24,510.5,16.3,-1.4,D,1439,3,9.394,1,1.02,149,144.26,-80.13743286,25.91260502,0,0,1,N,0.1567446,68,68,11,153,153,144.401,0,9999.99,2.27,2.397,2,9,29,0,29,38.86,1547.43144,10/7/22,11:03:19,27.52,58.31,38.86,1.124,8.19,-70.7,-1.7,1.8,-4233,42.2,2.68,12.4,
25.91266936,-80.13748466,30:44.8,10/7/22,8,1.022,125.36,-7.22131876,1.02,149.2,139.6,1.65,-3.66,33.4,0,2.26,2.26,95,24,510.5,16.3,-1.4,D,1439,3,8.834,1,1.03,149,144.09,-80.13743286,25.91260502,0,0,1,N,0.1217962,67,67,11,145,145,144.1507,0,9999.99,2.28,2.407,2,9,28.9,0,29,39.09,1547.67319,10/7/22,11:03:20,27.5,58.62,39.09,1.116,8.19,-70.7,-1.6,0.7,-1692,42.5,2.7,12.4,
25.91266479,-80.13748278,30:45.8,10/7/22,7,1.056,125.36,-7.22131876,1.1,149.7,140.08,1.84,-3.58,33.4,0,2.27,2.27,95,24,510.5,16.3,-1.4,D,1439,3,8.313,1,1.06,149,143.09,-80.13743286,25.91260502,0,0,1,N,3.07E-02,68,68,11,139,139,143.0583,0,9999.99,2.29,2.417,2,9,28.9,0,28.89999962,39.03,1547.40021,10/7/22,11:03:22,27.48,58.54,39.03,1.112,8.19,-70.7,-2.1,-6,-3808,42.8,2.72,12.4,
25.91266134,-80.13747812,30:46.8,10/7/22,8,1.009,125.36,-7.22131876,1.02,150.7,141.03,1.69,-3.52,33.5,0,2.32,2.32,95,24,510.5,16.3,-1.4,D,1439,3,7.728,1,1.09,149,144.14,-80.13743286,25.91260502,0,0,1,N,0.1147319,67,67,11,139,139,144.1002,0,9999.99,2.33,2.457,2,9,28.9,0,28.89999962,39.03,1547.40021,10/7/22,11:03:22,27.48,58.54,39.03,1.112,8.19,-70.7,-2.1,-6,-3808,42.8,2.72,12.4,
25.91265685,-80.13747537,30:47.8,10/7/22,8,0.999,125.36,-7.22131876,1.1,150.7,141.03,1.33,-3.18,33.4,0,2.29,2.29,95,24,510.4,16.3,-1.4,D,1422.5,3,7.161,1,1.08,149,143.58,-80.13743286,25.91260502,0,0,1,N,3.61E-02,65,65,11,137,137,143.5367,0,9999.99,2.3,2.427,2,9,28.9,0,28.89999962,38.97,1547.3371,10/7/22,11:03:23,27.5,58.45,38.97,1.098,8.19,-70.7,-1.6,-2.1,-1822,43,2.73,12.3,
25.91265429,-80.13747014,30:48.8,10/7/22,8,1.383,125.36,-7.22131876,1.02,151.4,141.69,1.76,-3.58,33.4,0,2.31,2.31,95,24,510.4,16.3,-1.4,D,1422.5,3,6.628,1,1.08,149,145.76,-80.13743286,25.91260502,0,0,1,N,0.2860766,68,68,11,142,142,145.3264,0,9999.99,2.33,2.457,2,9,28.9,0,28.89999962,38.7,1547.05313,10/7/22,11:03:25,27.5,58.1,38.7,1.147,8.19,-71,-1.6,-3.8,-1914,43.4,2.76,12.4,
25.91265162,-80.13746448,30:49.8,10/7/22,8,1.251,125.36,-7.22131876,1.02,151.7,141.98,1.68,-2.81,33.5,0,2.38,2.38,95,24,510.4,16.3,-1.4,D,1422.5,4,21.581,1,1.09,149,198.99,-80.13753471,25.9124681,0,0,1,N,5.568602,67,67,11,250,250,186.5529,0,9999.99,2.39,2.517,2,9,28.9,0,28.89999962,38.97,1547.3371,10/7/22,11:03:26,27.48,58.45,38.97,1.115,8.19,-70.9,-2.5,-1.1,-2912,43.6,2.77,12.6,
25.91264886,-80.1374587,30:50.8,10/7/22,8,1.035,125.36,-7.22131876,1.02,154.7,144.84,1.85,-3.19,33.4,0,2.39,2.39,95,24,510.4,16.3,-1.5,D,1389,4,21.49,1,1.08,149,200.72,-80.13753471,25.9124681,0,0,1,N,4.915164,68,68,11,250,250,189.5047,0,9999.99,2.41,2.537,2,9,28.9,0,28.89999962,38.97,1547.3371,10/7/22,11:03:26,27.48,58.45,38.97,1.115,8.19,-70.9,-2.5,-1.1,-2912,43.6,2.77,12.6,
25.91264399,-80.13745861,30:51.8,10/7/22,8,1.004,125.36,-7.22131876,1.02,158.4,148.39,1.99,-3.35,33.5,0,2.46,2.46,95,24,510.4,16.3,-1.5,D,1389,4,20.987,1,1.07,149,201.26,-80.13753471,25.9124681,0,0,1,N,4.612739,69,69,11,250,250,189.9126,0,9999.99,2.48,2.607,2,9,28.9,0,28.89999962,38.95,1547.31607,10/7/22,11:03:27,27.51,58.44,38.95,1.092,8.19,-70.8,-1.8,-3.9,-2327,43.7,2.78,12.4,
25.91263739,-80.13745695,30:52.8,10/7/22,8,1.222,125.36,-7.22131876,1.02,161.2,151.09,2.1,-3.74,33.4,0,2.53,2.53,95,24,510.4,16.3,-1.5,D,1389,4,20.368,1,1.04,149,202.45,-80.13753471,25.9124681,0,0,1,N,4.063467,70,70,11,250,250,191.3929,0,9999.99,2.55,2.677,2,9,28.9,0,28.89999962,39.22,1547.60006,10/7/22,11:03:29,27.51,58.79,39.22,1.093,8.19,-70.8,-2.5,0.1,-2067,44.2,2.81,12.3,
25.91263293,-80.1374548,30:53.8,10/7/22,8,1.019,125.36,-7.22131876,1.02,164.8,154.59,2.2,-3.59,33.5,0,2.6,2.6,95,24,510.4,16.3,-1.5,D,1389,4,19.995,1,1.03,149,203.56,-80.13753471,25.9124681,0,0,1,N,3.600411,70,70,11,250,250,193.1105,0,9999.99,2.62,2.747,2,9,28.9,0,28.89999962,39.22,1547.60006,10/7/22,11:03:29,27.51,58.79,39.22,1.093,8.19,-70.8,-2.5,0.1,-2067,44.2,2.81,12.3,
25.91262875,-80.13745123,30:54.8,10/7/22,8,0.933,125.36,-7.22131876,1.02,169.1,158.79,2.18,-3.35,33.4,0,2.62,2.62,95,24,510.4,16.3,-1.4,D,1429.1,4,19.718,1,0.99,149,205.05,-80.13753471,25.9124681,0,0,1,N,3.046933,69,69,11,250,250,195.7227,0,9999.99,2.64,2.767,2,9,28.9,0,28.89999962,39.09,1547.46332,10/7/22,11:03:30,27.5,58.62,39.09,1.103,8.19,-70.9,-2.3,-6.8,-2585,44.5,2.82,12.4,
25.91262433,-80.1374505,30:55.8,10/7/22,8,0.988,125.36,-7.22131876,1.02,173.3,162.93,1.87,-3.5,33.5,0,2.66,2.66,95,24,510.4,16.3,-1.4,D,1429.1,4,19.443,1,0.96,149,206.29,-80.13753471,25.9124681,0,0,1,N,2.592677,68,68,11,250,250,197.9075,0,9999.99,2.68,2.807,2,9,28.9,0,28.89999962,39.05,1547.42125,10/7/22,11:03:32,27.53,58.57,39.05,1.074,8.2,-71,-1.1,-0.3,-4694,44.8,2.84,12.4,
25.91262033,-80.1374495,30:56.9,10/7/22,7,0.971,125.36,-7.22131876,1.1,176,165.61,2.13,-3.33,33.5,0,2.74,2.74,95,24,510.4,16.3,-1.4,D,1429.1,4,18.926,1,0.94,149,206.94,-80.13753471,25.9124681,0,0,1,N,2.298436,70,70,11,250,250,198.7704,0,9999.99,2.76,2.887,2,9,28.9,0,28.89999962,39.05,1547.42125,10/7/22,11:03:32,27.53,58.57,39.05,1.074,8.2,-71,-1.1,-0.3,-4694,44.8,2.84,12.4,
25.91261633,-80.137449,30:57.9,10/7/22,7,0.866,125.36,-7.22131876,1.1,179.9,169.5,2.22,-3.6,33.4,0,2.76,2.76,95,24,510.4,16.3,-1.5,D,1408.2,4,18.601,1,0.91,149,207.7,-80.13753471,25.9124681,0,0,1,N,2.010662,70,70,11,250,250,200.0582,0,9999.99,2.78,2.907,2,9,28.9,0,28.89999962,39.21,1547.58954,10/7/22,11:03:33,27.55,58.77,39.21,1.089,8.19,-70.8,-1.2,-2.3,-872,44.9,2.85,12.3,
25.9126125,-80.13745033,30:58.9,10/7/22,7,0.948,125.36,-7.22131876,1.1,183.8,173.42,2.09,-3.47,33.4,0,2.81,2.81,95,24,510.4,16.3,-1.5,D,1408.2,4,18.23,1,0.91,149,208.46,-80.13753471,25.9124681,0,0,1,N,1.735538,70,70,11,240,240,201.572,0,9999.99,2.83,2.957,2,9,28.9,0,28.89999962,39.23,1547.61058,10/7/22,11:03:35,27.57,58.8,39.23,1.089,8.19,-70.7,-1.2,-7.1,-3404,45.1,2.86,12.3,
25.91260833,-80.13745383,30:59.9,10/7/22,8,0.981,125.36,-7.22131876,1.02,187.1,176.75,1.96,-3.27,33.4,0,2.86,2.86,95,24,510.4,16.3,-1.5,D,1408.2,4,17.775,1,0.9,149,208.7,-80.13753471,25.9124681,0,0,1,N,1.626903,69,69,11,232,232,202.2921,0,9999.99,2.88,3.007,2,9,28.9,0,28.89999962,39.23,1547.61058,10/7/22,11:03:35,27.57,58.8,39.23,1.089,8.19,-70.7,-1.2,-7.1,-3404,45.1,2.86,12.3,
25.91260433,-80.13745583,31:00.9,10/7/22,8,0.908,125.36,-7.22131876,1.02,190.6,180.31,2.07,-3.81,33.4,0,2.88,2.88,95,24,510.4,16.3,-1.5,D,1408.2,4,17.204,1,0.88,149,208.32,-80.13753471,25.9124681,0,0,1,N,1.672143,69,69,11,217,217,201.9813,0,9999.99,2.9,3.027,2,9,28.9,0,28.89999962,38.92,1547.28451,10/7/22,11:03:36,27.6,58.39,38.92,1.096,8.19,-70.7,-2.7,-1.1,-2430,45.5,2.89,12.6,
25.91260017,-80.13745783,31:01.9,10/7/22,8,0.899,125.36,-7.22131876,1.02,192.6,182.36,1.95,-3.47,33.3,0,2.98,2.98,95,25,510.3,16.3,-1.5,D,1373.5,4,16.692,1,0.86,149,208.44,-80.13753471,25.9124681,0,0,1,N,1.592887,69,69,11,208,208,202.5255,0,9999.99,3,3.127,2,9,28.9,0,28.89999962,38.6,1546.94795,10/7/22,11:03:38,27.62,57.98,38.6,1.1,8.19,-70.8,-1.8,2.3,61,45.7,2.91,12.5,
25.91259551,-80.13745743,31:02.9,10/7/22,8,1.088,125.36,-7.22131876,1.02,194.9,184.71,1.82,-3.58,33.4,0,3.04,3.04,95,25,510.3,16.3,-1.5,D,1373.5,4,16.139,1,0.85,149,208.61,-80.13753471,25.9124681,0,0,1,N,1.520412,68,68,11,201,201,203.2228,0,9999.99,3.06,3.187,2,9,28.9,0,28.89999962,38.6,1546.94795,10/7/22,11:03:38,27.62,57.98,38.6,1.1,8.19,-70.8,-1.8,2.3,61,45.7,2.91,12.5,
25.91259183,-80.13745667,31:03.9,10/7/22,8,0.958,125.36,-7.22131876,1.02,196.8,186.66,1.99,-3.01,33.5,0,3.09,3.09,95,25,510.3,16.3,-1.5,D,1373.5,4,15.796,1,0.86,149,209.49,-80.13753471,25.9124681,0,0,1,N,1.214546,69,69,11,204,204,205.1542,0,9999.99,3.11,3.237,2,9,28.9,0,28.89999962,38.83,1547.18985,10/7/22,11:03:39,27.61,58.28,38.83,1.09,8.19,-70.8,-1.9,-2.8,-2772,45.8,2.91,12.5,
25.91258783,-80.137458,31:04.9,10/7/22,7,0.864,125.36,-7.22131876,1.1,199.1,189.03,1.73,-2.73,33.5,0,3.12,3.12,95,25,510.3,16.3,-1.5,D,1373.5,4,15.458,1,0.88,149,210.51,-80.13753471,25.9124681,0,0,1,N,0.9148657,67,67,11,202,202,207.2617,0,9999.99,3.13,3.257,2,9,28.9,0,28.89999962,38.78,1547.13726,10/7/22,11:03:41,27.61,58.21,38.78,1.089,8.19,-71,-2.1,-0.2,-2146,46.1,2.93,12.4,
25.91258298,-80.13746014,31:05.9,10/7/22,7,0.891,125.36,-7.22131876,1.1,200.8,190.79,1.61,-3.3,33.5,0,3.16,3.16,95,24,510.3,16.3,-1.5,D,1394.2,4,14.792,1,0.89,149,210.28,-80.13753471,25.9124681,0,0,1,N,0.7536508,67,67,11,192,192,207.0979,0,9999.99,3.18,3.307,2,9,28.9,0,28.89999962,38.78,1547.13726,10/7/22,11:03:41,27.61,58.21,38.78,1.089,8.19,-71,-2.1,-0.2,-2146,46.1,2.93,12.4,
25.91257885,-80.13746248,31:06.9,10/7/22,7,0.964,125.36,-7.22131876,1.1,203.3,193.38,1.85,-2.88,33.5,0,3.21,3.21,95,24,510.3,16.3,-1.5,D,1394.2,4,14.277,1,0.9,150,210.4,-80.13753471,25.9124681,0,0,1,N,0.6722988,67,67,11,185,185,207.4724,0,9999.99,3.23,3.357,2,9,29,0,29,38.97,1547.54705,10/7/22,11:03:43,27.62,58.46,38.97,1.099,8.19,-70.8,-2.6,1.2,-1314,46.2,2.93,12.4,
25.91257538,-80.13746384,31:07.9,10/7/22,8,0.981,162.25,-7.22131876,1.1,204.6,194.73,1.85,-2.97,33.5,0,3.26,3.26,95,24,510.3,16.3,-1.5,D,1394.2,4,13.876,1,0.89,150,210.72,-80.13753471,25.9124681,0,0,1,N,0.6182172,68,68,11,181,181,208.29,0,9999.99,3.28,3.407,2,9,29,0,29,38.78,1547.34735,10/7/22,11:03:44,27.64,58.21,38.78,1.103,8.19,-70.7,-1.9,-0.8,-1197,46.1,2.93,12.4,
25.91257148,-80.13746385,31:09.0,10/7/22,8,0.897,162.25,-7.22131876,1.1,206,196.18,1.83,-2.74,33.5,0,3.32,3.32,95,25,510.3,16.3,-1.5,D,1370.8,4,13.505,1,0.89,150,211.65,-80.13753471,25.9124681,0,0,1,N,0.5169041,68,68,11,182,182,209.9747,0,9999.99,3.34,3.467,2,9,28.9,0,28.89999962,38.98,1547.34762,10/7/22,11:03:45,27.63,58.47,38.98,1.091,8.19,-70.8,-2.1,-5.3,1647,46.1,2.93,12.3,
25.91256755,-80.13746334,31:09.9,10/7/22,8,0.889,162.25,-7.22131876,1.1,207.3,197.54,1.87,-2.71,33.4,0,3.32,3.32,95,25,510.3,16.3,-1.5,D,1370.8,4,13.162,1,0.89,150,212.84,-80.13753471,25.9124681,0,0,1,N,0.2873295,68,68,11,185,185,212.0386,0,9999.99,3.34,3.467,2,9,29,0,28.89999962,39.07,1547.44228,10/7/22,11:03:46,27.65,58.6,39.07,1.096,8.19,-70.9,-2.2,-2.2,-3178,46.1,2.92,12.4,
25.91256338,-80.13746235,31:11.0,10/7/22,8,0.92,162.25,-7.22131876,1.1,208.6,198.89,1.87,-3.66,33.4,0,3.34,3.34,95,25,510.3,16.3,-1.5,D,1370.8,4,12.831,1,0.89,150,214.33,-80.13753471,25.9124681,0,0,1,N,3.52E-03,68,68,11,189,189,214.4786,0,9999.99,3.36,3.487,2,9,29,0,29,38.93,1547.50501,10/7/22,11:03:47,27.64,58.41,38.93,1.098,8.19,-70.9,-2.5,4,-4725,46.2,2.93,12.4,
25.91255904,-80.13746203,31:12.0,10/7/22,7,1.012,162.25,-7.22131876,1.1,209,199.31,1.73,-3.01,33.4,0,3.38,3.38,95,25,510.3,16.3,-1.5,D,1370.8,4,12.454,1,0.9,150,215.71,-80.13753471,25.9124681,0,0,1,N,0.3329835,67,67,11,196,196,216.5935,0,9999.99,3.4,3.527,2,9,29,0,29,39.04,1547.62063,10/7/22,11:03:48,27.63,58.55,39.04,1.095,8.19,-71,-2,-1.6,-3503,46.2,2.93,12.4,
25.91255429,-80.13746241,31:13.0,10/7/22,7,0.945,162.25,-7.22131876,1.1,209.9,200.25,1.71,-2.4,33.4,0,3.41,3.41,95,25,510.3,16.3,-1.5,D,1364.6,4,12.006,1,0.9,150,217.04,-80.13753471,25.9124681,0,0,1,N,0.6517943,67,67,11,200,200,218.4434,0,9999.99,3.43,3.557,2,9,29,0,29,38.74,1547.30531,10/7/22,11:03:49,27.64,58.16,38.74,1.1,8.19,-70.8,-2.3,1.6,-1815,46.2,2.93,12.4,
25.91255027,-80.13746361,31:14.0,10/7/22,7,0.901,162.25,-7.22131876,1.1,211.7,202.13,1.77,-3.28,33.4,0,3.42,3.42,95,25,510.3,16.3,-1.5,D,1364.6,4,11.578,1,0.92,150,217.89,-80.13753471,25.9124681,0,0,1,N,0.8015212,68,68,11,197,197,219.5072,0,9999.99,3.44,3.567,2,9,29,0,29,39.14,1547.72574,10/7/22,11:03:50,27.62,58.69,39.14,1.095,8.19,-70.6,-1.8,-3.5,-3221,46.4,2.94,12.3,
25.91254627,-80.13746414,31:15.0,10/7/22,7,0.963,162.25,-7.22131876,1.1,213,203.49,1.77,-2.7,33.4,0,3.44,3.44,95,25,510.3,16.3,-1.5,D,1364.6,4,11.197,1,0.89,150,219.07,-80.13753471,25.9124681,0,0,1,N,1.010303,68,68,11,197,197,220.9833,0,9999.99,3.46,3.587,2,9,28.9,0,28.89999962,38.81,1547.16882,10/7/22,11:03:51,27.63,58.26,38.81,1.096,8.19,-70.7,-2.3,-5.6,-736,46.5,2.95,12.3,
25.91254231,-80.13746477,31:16.0,10/7/22,7,0.983,179.72,-7.22131876,1.1,215.5,206.11,1.79,-3.1,33.4,0,3.48,3.48,95,25,510.3,16.3,-1.5,D,1377.8,4,10.818,1,0.91,150,220.29,-80.13753471,25.9124681,0,0,1,N,1.185066,68,68,11,192,192,222.3253,0,9999.99,3.49,3.617,2,9,29,0,28.89999962,38.94,1547.30555,10/7/22,11:03:52,27.6,58.42,38.94,1.095,8.19,-70.8,-2.3,-2.1,-2546,46.6,2.96,12.4,
25.91253798,-80.13746678,31:17.0,10/7/22,7,1.021,193.46,-7.22131876,1.1,217,207.68,1.68,-3.79,33.5,0,3.47,3.47,95,25,510.3,16.3,-1.5,D,1377.8,4,10.322,1,0.91,150,221.17,-80.13753471,25.9124681,0,0,1,N,1.387618,67,67,11,188,188,223.0385,0,9999.99,3.49,3.617,2,9,29,0,29,38.71,1547.27378,10/7/22,11:03:53,27.62,58.12,38.71,1.077,8.19,-70.8,-1.3,-5.8,-2930,46.6,2.96,12.2,
25.91253326,-80.13746839,31:18.0,10/7/22,8,0.962,193.46,-7.22131876,1.1,218.9,209.68,1.79,-3.43,33.4,0,3.49,3.49,95,25,510.3,16.3,-1.5,D,1377.8,4,9.823,1,0.92,150,222.48,-80.13753471,25.9124681,0,0,1,N,1.465253,68,68,11,185,185,224.1649,0,9999.99,3.51,3.637,2,9,28.9,0,28.89999962,38.96,1547.32658,10/7/22,11:03:54,27.59,58.44,38.96,1.095,8.19,-70.8,-1.9,-3,-2823,46.6,2.96,12.4,
25.91252909,-80.13746976,31:19.0,10/7/22,8,0.947,193.46,-7.22131876,1.1,220.8,211.67,1.96,-3.41,33.4,0,3.5,3.5,95,25,510.3,16.3,-1.5,D,1377.8,4,9.391,1,0.93,150,223.77,-80.13753471,25.9124681,0,0,1,N,1.610978,69,69,11,181,181,225.1713,0,9999.99,3.52,3.647,2,9,28.9,0,28.89999962,39,1547.36866,10/7/22,11:03:55,27.61,58.51,39,1.084,8.19,-70.5,-2,3.6,-2741,46.4,2.95,12.5,
25.91252515,-80.13747182,31:20.0,10/7/22,8,0.936,193.46,-7.22131876,1.1,221.6,212.52,1.87,-2.78,33.4,0,3.48,3.48,95,25,510.2,16.3,-1.5,D,1371.5,4,8.934,1,0.92,150,224.76,-80.13753471,25.9124681,0,0,1,N,1.764277,68,68,11,180,180,225.6509,0,9999.99,3.49,3.617,2,9,28.9,0,28.89999962,38.87,1547.23192,10/7/22,11:03:56,27.57,58.33,38.87,1.09,8.19,-70.5,-2,-0.8,-2095,46.4,2.95,12.4,
25.91252122,-80.13747164,31:21.0,10/7/22,8,1.001,197.15,-7.22131876,1.1,223.2,214.2,1.56,-3.87,33.4,0,3.58,3.58,95,25,510.2,16.3,-1.5,D,1369.7,4,8.641,1,0.93,150,226.89,-80.13753471,25.9124681,0,0,1,N,1.83526,66,66,11,180,180,227.4338,0,9999.99,3.59,3.717,2,9,28.9,0,28.89999962,39.37,1547.75784,10/7/22,11:03:57,27.54,58.98,39.37,1.09,8.18,-70.4,-1.8,-3.6,-579,46.3,2.93,12.3,
25.91251676,-80.13747345,31:22.0,10/7/22,8,1.028,201.14,-7.22131876,1.1,223.3,214.3,1.65,-2.83,33.4,0,3.61,3.61,95,25,510.2,16.3,-1.5,D,1369.7,4,8.174,1,0.93,150,228.55,-80.13753471,25.9124681,0,0,1,N,2.067145,67,67,11,183,183,228.2744,0,9999.99,3.63,3.757,2,9,28.9,0,28.89999962,38.85,1547.21089,10/7/22,11:03:58,27.54,58.3,38.85,1.11,8.19,-70.5,-1.7,-0.3,362,46,2.92,12.4,
25.9125128,-80.13747569,31:23.0,10/7/22,8,0.899,201.14,-7.22131876,1.02,225.1,216.2,1.79,-3.31,33.4,0,3.62,3.62,95,25,510.2,16.3,-1.5,D,1367,4,7.717,1,0.93,150,229.9,-80.13753471,25.9124681,0,0,1,N,2.125376,68,68,11,177,177,228.6644,0,9999.99,3.63,3.757,2,9,28.9,0,28.89999962,39.05,1547.42125,10/7/22,11:03:59,27.49,58.56,39.05,1.104,8.18,-70.4,-1.4,-2.5,-4536,45.7,2.9,12.4,
25.91250903,-80.13747781,31:24.0,10/7/22,8,0.861,201.14,-7.22131876,1.02,225.4,216.52,1.79,-2.85,33.4,0,3.63,3.63,95,25,510.2,16.3,-1.5,D,1367,4,7.287,1,0.93,150,231.34,-80.13753471,25.9124681,0,0,1,N,2.182528,68,68,11,177,177,229.0466,0,9999.99,3.65,3.777,2,9,28.9,0,28.89999962,38.71,1547.06364,10/7/22,11:04:00,27.51,58.11,38.71,1.089,8.18,-70.2,-1.7,-2.8,-3249,45.5,2.89,12.5,
25.91250525,-80.13748032,31:25.0,10/7/22,8,0.94,204.28,-7.22131876,1.02,226.6,217.78,1.67,-2.83,33.4,0,3.67,3.67,95,25,510.2,16.3,-1.5,D,1367,4,6.831,1,0.94,150,232.79,-80.13753471,25.9124681,0,0,1,N,2.209167,67,67,11,173,173,229.2227,0,9999.99,3.68,3.807,2,9,28.9,0,28.89999962,39,1547.36866,10/7/22,11:04:01,27.47,58.5,39,1.096,8.18,-70.2,-2.2,1.7,-1808,45.2,2.87,12.4,
25.91250172,-80.13748266,31:26.0,10/7/22,8,0.98,207.28,-7.22131876,1.02,227.5,218.73,1.78,-3.04,33.4,0,3.67,3.67,95,25,510.2,16.3,-1.5,D,1367,4,6.409,1,0.92,150,234.32,-80.13753471,25.9124681,0,0,1,N,2.341344,68,68,11,170,170,229.3684,0,9999.99,3.68,3.807,2,9,28.9,0,28.89999962,39.1,1547.47384,10/7/22,11:04:02,27.48,58.63,39.1,1.103,8.18,-70.2,-1.8,-0.5,-2270,44.8,2.85,12.4,
25.91249732,-80.13748617,31:27.0,10/7/22,8,0.986,207.28,-7.22131876,1.02,228.5,219.78,1.68,-3.9,33.4,0,3.67,3.67,95,25,510.2,16.3,-1.5,D,1360.8,5,21.368,1,0.93,150,222.7,-80.13763105,25.91235608,0,0,1,N,1.970102,67,67,11,151,151,225.427,0,9999.99,3.68,3.807,2,9,28.9,0,28.89999962,39.01,1547.37917,10/7/22,11:04:03,27.46,58.51,39.01,1.09,8.18,-70.2,-2.1,3.6,-1886,44.5,2.83,12.5,
25.91249315,-80.13748901,31:28.0,10/7/22,8,0.948,203.5,-7.22131876,1.02,228.7,219.99,1.55,-3.51,33.4,0,3.69,3.69,95,25,510.2,16.3,-1.5,D,1360.8,5,20.836,1,0.93,150,222.99,-80.13763105,25.91235608,0,0,1,N,2.00083,66,66,11,152,152,225.9971,0,9999.99,3.7,3.827,2,9,28.9,0,28.89999962,39.1,1547.47384,10/7/22,11:04:04,27.46,58.63,39.1,1.098,8.18,-70.2,-2,1.6,-3412,44.3,2.81,12.5,
25.91248922,-80.13749115,31:29.0,10/7/22,8,0.941,203.64,-7.22131876,1.02,228.5,219.78,1.65,-3.09,33.4,0,3.72,3.72,95,25,510.2,16.3,-1.5,D,1360.8,5,20.37,1,0.93,150,223.38,-80.13763105,25.91235608,0,0,1,N,2.066916,67,67,11,155,155,226.7601,0,9999.99,3.73,3.857,2,9,28.9,0,28.89999962,39.03,1547.40021,10/7/22,11:04:05,27.46,58.54,39.03,1.092,8.18,-69.9,-1.7,-5.3,-3798,43.9,2.79,12.3,
25.91248514,-80.13749252,31:30.0,10/7/22,8,0.999,206.9,-7.22131876,1.02,228.7,219.99,1.5,-3.35,33.4,0,3.74,3.74,95,25,510.2,16.3,-1.5,D,1363.4,5,19.948,1,0.95,150,223.99,-80.13763105,25.91235608,0,0,1,N,2.159451,66,66,11,158,158,227.8371,0,9999.99,3.75,3.877,2,9,28.9,0,28.89999962,39.32,1547.70525,10/7/22,11:04:06,27.45,58.92,39.32,1.082,8.17,-69.8,-1.8,-1.9,-2125,43.7,2.77,12.5,
25.91248147,-80.13749534,31:31.0,10/7/22,8,0.942,211.98,-7.22131876,1.02,228.6,219.89,1.5,-2.22,33.4,0,3.72,3.72,95,25,510.2,16.3,-1.5,D,1363.4,5,19.459,1,0.95,150,224.23,-80.13763105,25.91235608,0,0,1,N,2.32637,66,66,11,163,163,228.4,0,9999.99,3.73,3.857,2,9,28.9,0,28.89999962,38.9,1547.26348,10/7/22,11:04:07,27.47,58.37,38.9,1.089,8.18,-70,-2.6,-0.6,-3259,43.3,2.76,12.4,
25.91247724,-80.13749852,31:32.1,10/7/22,8,0.956,207.54,-7.22131876,1.02,229.7,221.05,1.38,-4.11,33.4,0,3.74,3.74,95,25,510.2,16.3,-1.5,D,1363.4,5,18.9,1,0.96,150,224.53,-80.13763105,25.91235608,0,0,1,N,2.22373,65,65,11,159,159,229.1178,0,9999.99,3.75,3.877,2,9,28.9,0,28.89999962,39,1547.36866,10/7/22,11:04:08,27.45,58.49,39,1.092,8.18,-70,-2.6,-1.6,-2436,43,2.73,12.4,
25.91247291,-80.13750119,31:33.1,10/7/22,8,1.002,203.84,-7.22131876,1.02,229.3,220.62,1.45,-2.89,33.5,0,3.78,3.78,95,25,510.2,16.3,-1.5,D,1363.4,5,18.37,1,0.96,150,224.99,-80.13763105,25.91235608,0,0,1,N,2.307487,66,66,11,165,165,230.1238,0,9999.99,3.79,3.917,2,9,28.9,0,28.89999962,38.68,1547.03209,10/7/22,11:04:09,27.48,58.07,38.68,1.107,8.18,-70.1,-2,-0.2,-142,42.7,2.72,12.4,
25.91246879,-80.13750206,31:34.1,10/7/22,8,1.009,204.33,-7.22131876,1.02,229.4,220.73,1.42,-2.68,33.4,0,3.81,3.81,95,25,510.1,16.3,-1.5,D,1365.9,5,17.986,1,0.95,150,225.83,-80.13763105,25.91235608,0,0,1,N,2.51602,66,66,11,168,168,231.7264,0,9999.99,3.82,3.947,2,9,28.9,0,28.89999962,38.9,1547.26348,10/7/22,11:04:10,27.46,58.37,38.9,1.104,8.18,-70,-2.5,-0.8,-1529,42.5,2.7,12.4,
25.91246446,-80.13750341,31:35.1,10/7/22,8,1.016,204.63,-7.22131876,1.02,230.2,221.57,1.44,-2.95,33.4,0,3.83,3.83,95,25,510.1,16.3,-1.5,D,1365.9,5,17.555,1,0.95,150,226.65,-80.13763105,25.91235608,0,0,1,N,2.704235,66,66,11,174,174,233.4086,0,9999.99,3.85,3.977,2,9,28.9,0,28.89999962,38.85,1547.21089,10/7/22,11:04:11,27.49,58.3,38.85,1.101,8.18,-70,-2.4,-2.2,-3025,42.1,2.68,12.3,
25.91246039,-80.13750437,31:36.1,10/7/22,8,1.062,203.69,-7.22131876,1.02,231,222.42,1.68,-2.86,33.4,0,3.86,3.86,95,25,510.1,16.3,-1.5,D,1365.9,5,17.177,1,0.99,150,227.53,-80.13763105,25.91235608,0,0,1,N,2.907676,66,66,11,180,180,235.2383,0,9999.99,3.87,3.997,2,9,28.9,0,28.89999962,38.96,1547.32658,10/7/22,11:04:12,27.47,58.44,38.96,1.112,8.17,-69.7,-1,-1.8,386,41.9,2.66,12.3,
25.91245577,-80.13750728,31:37.1,10/7/22,8,1.028,203.47,-7.22131876,1.02,231.7,223.15,1.53,-2.94,33.4,0,3.85,3.85,85,25,510.1,16.3,-1.5,D,1368.5,5,16.616,1,0.98,150,228.16,-80.13763105,25.91235608,0,0,1,N,2.990199,66,66,11,180,180,236.8082,0,9999.99,3.86,3.987,2,9,28.9,0,28.89999962,38.92,1547.28451,10/7/22,11:04:13,27.49,58.39,38.92,1.094,8.18,-70,-2.1,-5.7,-277,41.6,2.65,12.5,
25.91245139,-80.13751031,31:38.1,10/7/22,8,0.993,205.29,-7.22131876,1.02,233,224.52,1.64,-3.2,33.5,0,3.86,3.86,85,25,510.1,16.3,-1.5,D,1368.5,5,16.067,1,1.03,150,228.73,-80.13763105,25.91235608,0,0,1,N,3.048588,67,67,11,182,182,238.3842,0,9999.99,3.87,3.997,2,9,28.9,0,28.89999962,38.84,1547.20037,10/7/22,11:04:14,27.48,58.28,38.84,1.099,8.18,-69.9,-2.2,0.4,-3070,41.5,2.64,12.5,
25.91244727,-80.13751386,31:39.1,10/7/22,8,0.908,209.12,-7.22131876,1.02,234.2,225.79,1.52,-3.58,33.4,0,3.87,3.87,85,25,510.1,16.3,-1.5,D,1368.5,5,15.498,1,1.01,150,229.14,-80.13763105,25.91235608,0,0,1,N,3.052741,66,66,11,178,178,238.6195,0,9999.99,3.89,4.017,2,9,28.9,0,28.89999962,39.18,1547.55799,10/7/22,11:04:15,27.5,58.73,39.18,1.091,8.18,-70.1,-2.2,-2.2,-4035,41.3,2.62,12.4,
25.91244398,-80.13751634,31:40.1,10/7/22,8,0.922,210.64,-7.22131876,1.02,235.3,226.95,1.64,-2.54,33.4,0,3.9,3.9,85,25,510.1,16.3,-1.5,D,1368.5,5,15.071,1,0.98,150,229.57,-80.13763105,25.91235608,0,0,1,N,3.081218,67,67,11,174,174,238.7894,0,9999.99,3.91,4.037,2,9,28.9,0,28.89999962,38.81,1547.16882,10/7/22,11:04:16,27.49,58.25,38.81,1.086,8.18,-69.9,-2.6,-2.9,-878,41.1,2.61,12.4,
25.91244066,-80.13751886,31:41.1,10/7/22,8,0.985,208.62,-7.22131876,1.02,236.8,228.53,1.63,-3.2,33.4,0,3.88,3.88,95,25,510.1,16.3,-1.5,D,1359.7,5,14.641,1,0.96,150,230.03,-80.13763105,25.91235608,0,0,1,N,3.107488,67,67,11,169,169,238.954,0,9999.99,3.9,4.027,2,9,28.9,0,28.89999962,39.2,1547.57902,10/7/22,11:04:17,27.51,58.77,39.2,1.1,8.17,-69.8,-2.3,-3.1,-1639,40.8,2.59,12.3,
25.91243719,-80.13752157,31:42.1,10/7/22,8,0.928,209.13,-7.22131876,1.02,238.5,230.32,1.76,-3.66,33.4,0,3.88,3.88,95,25,510.1,16.3,-1.5,D,1359.7,5,14.186,1,0.95,150,230.52,-80.13763105,25.91235608,0,0,1,N,3.131919,68,68,11,162,162,239.1053,0,9999.99,3.89,4.017,2,9,28.9,0,28.89999962,38.78,1547.13726,10/7/22,11:04:18,27.51,58.21,38.78,1.099,8.18,-70,-2.4,-2.6,-2177,40.7,2.59,12.5,
25.91243307,-80.13752429,31:43.1,10/7/22,8,0.932,212.26,-7.22131876,1.02,240.3,232.21,1.72,-3.59,33.4,0,3.91,3.91,95,25,510.1,16.3,-1.5,D,1359.7,5,13.686,1,0.91,150,231.28,-80.13763105,25.91235608,0,0,1,N,3.19586,67,67,11,156,156,239.4998,0,9999.99,3.92,4.047,2,9,28.9,0,28.89999962,39.03,1547.40021,10/7/22,11:04:19,27.52,58.54,39.03,1.085,8.18,-70.1,-2,-2.1,-1070,40.5,2.57,12.4,
25.91242965,-80.13752733,31:44.1,10/7/22,8,0.928,214.72,-7.22131876,1.02,241.3,233.27,1.61,-3.59,33.4,0,3.91,3.91,95,25,510.1,16.3,-1.5,D,1361.3,5,13.211,1,0.92,150,231.74,-80.13763105,25.91235608,0,0,1,N,3.191199,67,67,11,152,152,239.4707,0,9999.99,3.93,4.057,2,9,28.9,0,28.89999962,38.82,1547.17933,10/7/22,11:04:20,27.53,58.26,38.82,1.1,8.18,-70.3,-1.8,5.1,-1463,40.4,2.57,12.4,
25.91242632,-80.13753045,31:45.1,10/7/22,8,0.944,213.94,-7.22131876,1.02,242.9,234.95,1.56,-4.18,33.4,0,3.87,3.87,95,25,510.1,16.3,-1.5,D,1361.3,5,12.737,1,0.92,150,232.18,-80.13763105,25.91235608,0,0,1,N,3.174261,66,66,11,145,145,239.3669,0,9999.99,3.89,4.017,2,9,28.9,0,28.89999962,39.04,1547.41073,10/7/22,11:04:21,27.53,58.56,39.04,1.086,8.18,-70.3,-2.4,-3.5,-2563,40.3,2.56,12.4,
25.91242308,-80.13753327,31:46.1,10/7/22,8,0.928,213.28,-7.22131876,1.02,244.6,236.74,1.56,-4.07,33.4,0,3.87,3.87,95,25,510.1,16.3,-1.5,D,1361.3,5,12.294,1,0.91,150,232.7,-80.13763105,25.91235608,0,0,1,N,3.173265,66,66,11,140,140,239.362,0,9999.99,3.88,4.007,2,9,28.9,0,28.89999962,38.71,1547.06364,10/7/22,11:04:22,27.56,58.11,38.71,1.102,8.18,-70.2,-1.9,-3.5,-475,40.2,2.55,12.6,
25.91242004,-80.13753639,31:47.1,10/7/22,8,0.87,213.28,-7.22131876,1.02,245.4,237.58,1.71,-4.02,33.4,0,3.86,3.86,95,25,510.1,16.3,-1.5,D,1361.3,5,11.841,1,0.91,150,233.08,-80.13763105,25.91235608,0,0,1,N,3.134515,67,67,11,134,134,239.1204,0,9999.99,3.87,3.997,2,9,28.9,0,28.89999962,38.98,1547.34762,10/7/22,11:04:23,27.52,58.47,38.98,1.086,8.18,-70.2,-1.6,-1.4,-1602,40.2,2.55,12.6,
25.91241749,-80.13753918,31:48.1,10/7/22,8,0.854,218.02,-7.22131876,1.02,246.1,238.31,1.59,-3.59,33.4,0,3.86,3.86,95,25,510.1,16.3,-1.5,D,1364,5,11.448,1,0.9,150,233.38,-80.13763105,25.91235608,0,0,1,N,3.088059,67,67,11,129,129,238.8323,0,9999.99,3.87,3.997,2,9,28.9,0,28.89999962,38.96,1547.32658,10/7/22,11:04:24,27.55,58.45,38.96,1.089,8.18,-70.4,-2.9,2.5,-1286,40.2,2.55,12.4,
25.91241467,-80.13754235,31:49.1,10/7/22,8,0.892,220.01,-7.22131876,1.02,246.5,238.73,1.59,-3.21,33.4,0,3.88,3.88,95,25,510.1,16.3,-1.5,D,1364,5,11.006,1,0.89,150,233.71,-80.13763105,25.91235608,0,0,1,N,3.029445,67,67,11,126,126,238.4656,0,9999.99,3.89,4.017,2,9,28.9,0,28.89999962,38.89,1547.25296,10/7/22,11:04:25,27.53,58.35,38.89,1.096,8.18,-70.3,-2.3,-1.8,-2119,40.1,2.55,12.4,
25.91241158,-80.13754564,31:50.1,10/7/22,8,0.91,220.08,-7.22131876,1.02,247.2,239.47,1.57,-3.99,33.4,0,3.86,3.86,95,25,510.1,16.3,-1.5,D,1364,5,10.538,1,0.92,150,234.16,-80.13763105,25.91235608,0,0,1,N,2.981899,66,66,11,122,122,238.167,0,9999.99,3.87,3.997,2,9,28.9,0,28.89999962,39.24,1547.6211,10/7/22,11:04:26,27.54,58.81,39.24,1.101,8.19,-70.7,-1.8,-0.5,-433,40.2,2.55,12.4,
25.91240907,-80.13754885,31:51.1,10/7/22,8,0.895,222.3,-7.22131876,1.02,246.8,239.05,1.46,-3.66,33.3,0,3.84,3.84,95,25,510.1,16.3,-1.5,D,1364,5,10.115,1,0.9,150,234.37,-80.13763105,25.91235608,0,0,1,N,2.89882,66,66,11,122,122,237.6425,0,9999.99,3.85,3.977,2,9,28.9,0,28.89999962,38.73,1547.08468,10/7/22,11:04:27,27.54,58.15,38.73,1.092,8.18,-70.3,-2.2,-0.7,-666,40.2,2.55,12.4,
25.91240653,-80.13755156,31:52.1,10/7/22,8,0.799,226.34,-7.22131876,1.02,246.9,239.15,1.65,-2.77,33.4,0,3.84,3.84,95,25,510,16.3,-1.5,D,1373.6,5,9.73,1,0.9,150,234.79,-80.13763105,25.91235608,0,0,1,N,2.857626,67,67,11,120,120,237.3808,0,9999.99,3.85,3.977,2,9,28.9,0,28.89999962,38.83,1547.18985,10/7/22,11:04:28,27.55,58.28,38.83,1.086,8.18,-70.3,-2.4,-2.2,-938,40.3,2.56,12.6,
25.91240419,-80.13755523,31:53.1,10/7/22,8,0.841,230.48,-7.22131876,1.02,247,239.26,1.41,-2.78,33.3,0,3.82,3.82,95,25,510,16.3,-1.5,D,1373.6,5,9.28,1,0.9,150,234.8,-80.13763105,25.91235608,0,0,1,N,2.726116,65,65,11,116,116,236.542,0,9999.99,3.83,3.957,2,9,28.9,0,28.89999962,38.67,1547.02157,10/7/22,11:04:29,27.55,58.07,38.67,1.088,8.18,-70.4,-3,0.6,-3187,40.3,2.56,12.4,
25.91240179,-80.1375583,31:54.1,10/7/22,8,0.917,226.4,-7.22131876,1.02,247.1,239.36,1.41,-3.58,33.4,0,3.8,3.8,95,25,510,16.3,-1.5,D,1373.6,5,8.875,1,0.9,150,235.06,-80.13763105,25.91235608,0,0,1,N,2.645911,65,65,11,115,115,236.0258,0,9999.99,3.81,3.937,2,9,28.9,0,28.89999962,39.1,1547.47384,10/7/22,11:04:30,27.57,58.64,39.1,1.097,8.19,-70.6,-2.3,-3.5,-2358,40.4,2.56,12.4,
25.91239846,-80.13756212,31:55.1,10/7/22,8,0.873,225.24,-7.22131876,1.02,247.1,239.36,1.41,-3.36,33.4,0,3.79,3.79,95,24,510,16.3,-1.5,D,1396.2,5,8.351,1,0.9,150,235.65,-80.13763105,25.91235608,0,0,1,N,2.572002,65,65,11,112,112,235.5471,0,9999.99,3.8,3.927,2,9,28.9,0,28.89999962,38.59,1546.93744,10/7/22,11:04:31,27.58,57.96,38.59,1.094,8.19,-70.7,-1.3,0.8,-905,40.5,2.57,12.4,
25.91239573,-80.13756492,31:56.1,10/7/22,8,0.813,227.13,-7.22131876,1.02,247.5,239.78,1.4,-3.29,33.3,0,3.79,3.79,95,24,510,16.3,-1.5,D,1396.2,5,7.948,1,0.89,150,236.31,-80.13763105,25.91235608,0,0,1,N,2.537497,65,65,11,109,109,235.3223,0,9999.99,3.8,3.927,2,9,28.9,0,28.89999962,39.03,1547.40021,10/7/22,11:04:32,27.59,58.54,39.03,1.092,8.19,-70.5,-2.9,-0.5,-556,40.6,2.58,12.4,
25.91239333,-80.13756833,31:57.1,10/7/22,8,0.848,232.23,-7.22131876,1.02,247.6,239.89,1.55,-3.18,33.3,0,3.77,3.77,95,24,510,16.3,-1.5,D,1396.2,5,7.517,1,0.89,150,236.56,-80.13763105,25.91235608,0,0,1,N,2.430612,66,66,11,106,106,234.6249,0,9999.99,3.78,3.907,2,9,28.9,0,28.89999962,38.68,1547.03209,10/7/22,11:04:33,27.6,58.08,38.68,1.093,8.19,-70.6,-1.3,-1.8,-1579,40.7,2.59,12.4,
25.91239098,-80.13757167,31:58.1,10/7/22,8,0.835,231.34,-7.22131876,1.02,247.6,239.89,1.52,-2.8,33.4,0,3.73,3.73,95,24,510,16.3,-1.5,D,1396.2,5,7.094,1,0.9,150,236.83,-80.13763105,25.91235608,0,0,1,N,2.32597,66,66,11,104,104,233.9364,0,9999.99,3.74,3.867,2,9,28.9,0,28.89999962,39.09,1547.46332,10/7/22,11:04:34,27.61,58.62,39.09,1.082,8.19,-70.6,-2.9,0.5,1313,41,2.6,12.3,
25.91238858,-80.13757525,31:59.1,10/7/22,8,0.907,229.66,-7.22131876,1.02,247.5,239.78,1.47,-3.17,33.3,0,3.72,3.72,95,25,510,16.3,-1.5,D,1366.4,5,6.648,1,0.87,150,237.07,-80.13763105,25.91235608,0,0,1,N,2.206902,65,65,11,101,101,233.1482,0,9999.99,3.73,3.857,2,9,28.9,0,28.89999962,38.6,1546.94795,10/7/22,11:04:35,27.63,57.97,38.6,1.09,8.19,-70.8,-3.4,-3,-2627,41.1,2.61,12.5,
25.91238589,-80.13757866,32:00.1,10/7/22,8,0.911,229.55,-7.22131876,1.02,247.3,239.57,1.47,-3.56,33.4,0,3.71,3.71,95,25,510,16.3,-1.5,D,1366.4,6,17.994,1,0.88,150,178.28,-80.13757325,25.91222414,0,0,1,N,2.123052,66,66,11,5,5,200.7104,0,9999.99,3.72,3.847,2,9,28.9,0,28.89999962,38.93,1547.29503,10/7/22,11:04:36,27.65,58.41,38.93,1.1,8.19,-70.8,-1.5,-6,-2093,41.3,2.62,12.4,
25.91238303,-80.13758168,32:01.1,10/7/22,8,0.861,228.58,-7.22131876,1.02,246.5,238.73,1.35,-5.95,33.4,0,3.69,3.69,95,25,510,16.3,-1.5,D,1366.4,6,17.688,1,0.87,150,177.27,-80.13757325,25.91222414,0,0,1,N,5.737257,65,65,11,5,5,191.0501,0,9999.99,3.7,3.827,2,9,28.9,0,28.89999962,38.71,1547.06364,10/7/22,11:04:37,27.68,58.12,38.71,1.092,8.19,-71,-1.8,-1.1,-1338,41.4,2.63,12.3,
25.9123806,-80.13758524,32:02.1,10/7/22,8,0.836,233.06,-7.22131876,1.02,243.8,235.9,1.21,-4.07,33.3,0,3.67,3.67,95,25,510,16.3,-1.5,D,1348.1,6,17.439,1,0.86,151,176.06,-80.13757325,25.91222414,0,0,1,N,5.317977,64,64,11,5,5,189.4283,0,9999.99,3.68,3.807,2,9,28.9,0,28.89999962,38.89,1547.25296,10/7/22,11:04:38,27.68,58.35,38.89,1.089,8.19,-70.9,-3.4,-1.5,-3627,41.7,2.64,12.4,
25.91237871,-80.13758902,32:03.1,10/7/22,8,0.82,234.82,-7.22131876,1.02,239.9,231.79,1.43,-4.26,33.4,0,3.63,3.63,95,25,510,16.3,-1.5,D,1348.1,6,17.259,1,0.87,151,174.76,-80.13757325,25.91222414,0,0,1,N,4.88129,66,66,11,5,5,187.4677,0,9999.99,3.64,3.767,2,9,28.9,0,28.89999962,38.87,1547.23192,10/7/22,11:04:39,27.73,58.33,38.87,1.082,8.19,-70.7,-1.5,-3.8,-3374,41.8,2.65,12.4,
25.91237624,-80.13759264,32:04.1,10/7/22,8,0.82,234.71,-7.22131876,1.02,235.6,227.26,1.57,-3.07,33.3,0,3.61,3.61,95,25,510,16.3,-1.5,D,1348.1,6,17.024,1,0.86,151,173.46,-80.13757325,25.91222414,0,0,1,N,4.435844,66,66,11,5,5,185.5237,0,9999.99,3.62,3.747,2,9,28.9,0,28.89999962,38.91,1547.27399,10/7/22,11:04:40,27.74,58.39,38.91,1.083,8.19,-70.8,-2.4,-2.6,-2641,42,2.66,12.4,
25.91237365,-80.13759599,32:05.1,10/7/22,8,0.803,234.56,-7.22131876,1.02,229.7,221.05,1.67,-3.37,33.4,0,3.56,3.56,95,25,510,16.3,-1.5,D,1348.1,6,16.779,1,0.87,151,172.21,-80.13757325,25.91222414,0,0,1,N,4.015145,67,67,11,5,5,183.6315,0,9999.99,3.57,3.697,2,9,28.9,0,28.89999962,39.19,1547.5685,10/7/22,11:04:41,27.76,58.76,39.19,1.074,8.19,-71,-3.2,-2.5,-741,42.3,2.67,12.3,
